"school_code","school_name","school_address1","school_address2","school_city","school_province","school_postal_code","school_phone","authority_type","latitude","longitude","school_updated","school_authority_code","ecs","grade_1","grade_2","grade_3","grade_4","grade_5","grade_6","grade_7","grade_8","grade_9","grade_10","grade_11","grade_12","total","start_year","end_year","enrollment_updated"
"0017","Centre High","Suite 200","10310 - 102 Avenue","Edmonton","AB","T5J5A2","(780) 425-6753","Public","53.543270990587","-113.49800799748","2017-03-16 21:15:31","0","0","0","0","0","0","0","0","0","0","0","0","0","196","196","2012","2013","2017-03-16 21:16:27"
"0018","The Academy at King Edward","8525 - 101 Street","","Edmonton","AB","T6E3Z4","(780) 439-1368","Public","53.521382","-113.489977","2017-03-16 21:15:31","0","0","0","-1","0","0","4","-8","10","0","4","1","-2","0","8","2012","2013","2017-03-16 21:16:27"
"0026","Ecole Publique Gabrielle-Roy","8728 - 93 Avenue","","Edmonton","AB","T6C1T8","(780) 457-2100","Francophone","53.5299083","-113.4632388","2017-03-16 21:15:31","0","8","11","12","3","1","-5","16","2","5","14","9","9","-8","77","2012","2013","2017-03-16 21:16:27"
"0028","Phoenix Academy","Centre 170, Suite 145","10403 - 172 St","Edmonton","AB","T5S1K9","(780) 440-0708","Private School","53.5468739","-113.6168528","2017-03-16 21:15:31","0","0","0","0","0","-1","0","0","-1","1","-4","1","0","0","-4","2012","2013","2017-03-16 21:16:27"
"0098","Harvest Baptist Academy","26404 Highway 16, West","","Spruce Grove","AB","T7X3H5","(780) 960-0235","Private School","53.591742042059","-113.78738799757","2017-03-16 21:15:31","0","2","15","9","10","9","10","15","8","7","6","6","3","2","102","2012","2013","2017-03-16 21:16:27"
"0136","Grit Program","12852 141 Street NW","","Edmonton","AB","T5L4N8","(780) 454-9910","ECS Private Operator","53.586012930061","-113.56474865529","2017-03-16 21:15:31","0","-13","0","0","0","0","0","0","0","0","0","0","0","0","-13","2012","2013","2017-03-16 21:16:27"
"0140","Student's Union & Community Day Care Centre","8917 - 112 Street","","Edmonton","AB","T6G2C5","(780) 492-2245","ECS Private Operator","53.525005564374","-113.5207388828","2017-03-16 21:15:31","0","0","0","0","0","0","0","0","0","0","0","0","0","0","0","2012","2013","2017-03-16 21:16:27"
"0151","Community Preschool Education","Suite 200","15824 - 131 Avenue","Edmonton","AB","T5V1J4","(780) 455-1818","ECS Private Operator","53.590707","-113.596221","2017-03-16 21:15:31","0","16","0","0","0","0","0","0","0","0","0","0","0","0","16","2012","2013","2017-03-16 21:16:27"
"0173","Jasper Place Child Care/ECS Program","16811-88 Avenue-Main Floor","Cabrini Centre","Edmonton","AB","T5R5Y6","(780) 489-2243","ECS Private Operator","53.523284121295","-113.61257757592","2017-03-16 21:15:31","0","-5","0","0","0","0","0","0","0","0","0","0","0","0","-5","2012","2013","2017-03-16 21:16:27"
"0189","A B C Head Start Program","9829-103 Street NW","","Edmonton","AB","T5K0X9","(780) 461-5353","ECS Private Operator","53.5364292","-113.4970614","2017-03-16 21:15:31","0","70","0","0","0","0","0","0","0","0","0","0","0","0","70","2012","2013","2017-03-16 21:16:27"
"0214","Beverly Day Care Centre","11809 - 48 Street","","Edmonton","AB","T5W2Y4","(780) 477-1151","ECS Private Operator","53.571244","-113.415073","2017-03-16 21:15:31","0","-1","0","0","0","0","0","0","0","0","0","0","0","0","-1","2012","2013","2017-03-16 21:16:27"
"0297","Oliver Centre","10227 - 118 Street","","Edmonton","AB","T5K2V4","(780) 482-2116","ECS Private Operator","53.543789311777","-113.52477773149","2017-03-16 21:15:31","0","-2","0","0","0","0","0","0","0","0","0","0","0","0","-2","2012","2013","2017-03-16 21:16:27"
"0314","Morinville Learning Centre","9507 - 100 Street","","Morinville","AB","T8R1R2","(780) 939-4033","Public","53.795805","-113.644407","2017-03-16 21:15:31","0","0","0","0","0","0","0","0","0","0","0","6","5","16","27","2012","2013","2017-03-16 21:16:27"
"0325","Transitions at the Y","10211-105 Street","","Edmonton","AB","T5J1E3","(780) 429-5737","Public","53.543359997338","-113.50062057606","2017-03-16 21:15:31","0","0","0","0","0","0","0","0","0","0","5","3","5","-9","4","2012","2013","2017-03-16 21:16:27"
"0338","J. J. Nearing Catholic Elementary School","196 Deer Ridge Drive","","St. Albert","AB","T8N6T6","(780) 418-6330","Separate","53.652955576365","-113.66202762698","2017-03-16 21:15:31","0","16","3","-13","2","1","10","-15","0","0","0","0","0","0","4","2012","2013","2017-03-16 21:16:27"
"0344","Personalized Learning Activities and Community Education","4752-99 Street","","Edmonton","AB","T6E5H5","(780) 488-6600","ECS Private Operator","53.485295269417","-113.48734408731","2017-03-16 21:15:31","0","2","0","0","0","0","0","0","0","0","0","0","0","0","2","2012","2013","2017-03-16 21:16:27"
"0349","Argyll Home School Centre","6859 - 100 Avenue","","Edmonton","AB","T6A0G3","(780) 465-1299","Public","53.539929745552","-113.43447077777","2017-03-16 21:15:31","0","-1","-18","16","16","-2","22","6","11","28","11","-12","-19","19","77","2012","2013","2017-03-16 21:16:27"
"0378","St. Albert Storefront School","202 Mission Hill Plaza","398 St. Albert Trail","St. Albert","AB","T8N5J9","(780) 459-6616","Separate","53.629758261086","-113.62724125397","2017-03-16 21:15:31","0","0","0","0","0","0","0","0","0","0","5","2","-4","-16","-13","2012","2013","2017-03-16 21:16:27"
"0386","Learning Store on Whyte","10007 - 82 Avenue","","Edmonton","AB","T6E1Z2","(780) 437-8119","Public","53.517637","-113.489114","2017-03-16 21:15:31","0","0","0","0","0","0","0","0","0","0","0","3","19","71","93","2012","2013","2017-03-16 21:16:27"
"0483","Thomas More Academy","Centre 170, Suite 145","10403 - 172 St","Edmonton","AB","T5S1K9","(780) 430-6969","Private School","53.5468739","-113.6168528","2017-03-16 21:15:31","0","0","0","0","0","0","0","0","1","-2","5","-4","2","-2","0","2012","2013","2017-03-16 21:16:27"
"0484","Amiskwaciy Academy","101 Airport Road","","Edmonton","AB","T5G3K2","","Public","53.5710828","-113.522451","2017-03-16 21:15:31","0","0","0","0","0","0","0","0","0","-23","-2","5","-1","21","0","2012","2013","2017-03-16 21:16:27"
"0577","Columbus Academy","Centre 170, Suite 145","10403 - 172 St","Edmonton","AB","T5S1K9","(780) 440-0708","Private School","53.5468739","-113.6168528","2017-03-16 21:15:31","0","0","0","0","0","0","0","1","-2","1","-4","2","0","-1","-3","2012","2013","2017-03-16 21:16:27"
"0655","Elves Child Development Centre","10825 - 142 Street","","Edmonton","AB","T5N3Y7","(780) 454-5310","Private School","53.553572426311","-113.56476997117","2017-03-16 21:15:31","0","-2","1","0","-1","-1","2","-1","1","-3","2","-6","6","1","-1","2012","2013","2017-03-16 21:16:27"
"0658","Connect Society's Early Childhood Services","6240-113 Street, N.W.","","Edmonton","AB","T6H3L2","(780) 454-9581","ECS Private Operator","53.4999779","-113.5244164","2017-03-16 21:15:31","0","-1","0","0","0","0","0","0","0","0","0","0","0","0","-1","2012","2013","2017-03-16 21:16:27"
"0681","Londonderry Child Development Society","13931-140 Street","","Edmonton","AB","T6V1J7","(780) 473-7216","ECS Private Operator","53.6020396","-113.5612596","2017-03-16 21:15:31","0","1","0","0","0","0","0","0","0","0","0","0","0","0","1","2012","2013","2017-03-16 21:16:27"
"0684","Southview Child Care","3650 - 91 Street","","Edmonton","AB","T6E6P1","(780) 436-1823","ECS Private Operator","53.471776","-113.4684695","2017-03-16 21:15:31","0","1","0","0","0","0","0","0","0","0","0","0","0","0","1","2012","2013","2017-03-16 21:16:27"
"0688","Norwood Child & Family Resource Centre","9516 - 114 Avenue","","Edmonton","AB","T5G0K7","(780) 471-3737","ECS Private Operator","53.5645897","-113.4889483","2017-03-16 21:15:31","0","4","0","0","0","0","0","0","0","0","0","0","0","0","4","2012","2013","2017-03-16 21:16:27"
"0697","St. Peter's Lutheran Church Early Childhood Services","5012 - 51 Avenue","","Leduc","AB","T9E5L2","(780) 986-5558","ECS Private Operator","53.265763410147","-113.55299446362","2017-03-16 21:15:31","0","-1","0","0","0","0","0","0","0","0","0","0","0","0","-1","2012","2013","2017-03-16 21:16:27"
"0700","Sherwood Park Kindergarten","105 Main Terrace","","Sherwood Park","AB","T8A0R7","(780) 467-5644","ECS Private Operator","53.523534887575","-113.31541974306","2017-03-16 21:15:31","0","0","0","0","0","0","0","0","0","0","0","0","0","0","0","2012","2013","2017-03-16 21:16:27"
"1003","Jackson Heights Elementary","311 Jackson Rd., N.W.","","Edmonton","AB","T6L6S7","(780) 465-9797","Public","53.483441289088","-113.40903525397","2017-03-16 21:15:31","0","-9","-3","-9","1","2","-14","8","0","0","0","0","0","0","-24","2012","2013","2017-03-16 21:16:27"
"1004","George P. Nicholson School","1120 - 113 Street","","Edmonton","AB","T6J7J4","(780) 439-9314","Public","53.442650753956","-113.52542257672","2017-03-16 21:15:31","0","-12","13","19","-13","2","0","3","0","0","0","0","0","0","12","2012","2013","2017-03-16 21:16:27"
"1006","Edmonton Khalsa School","4504 Millwoods Road South","","Edmonton","AB","T6L6Y8","(780) 450-8753","Private School","53.443617274366","-113.4081833582","2017-03-16 21:15:31","0","17","-13","17","-2","-2","2","-5","-5","-3","0","0","0","0","6","2012","2013","2017-03-16 21:16:27"
"1008","Headway School Society of Alberta","10435-76 Street NW","","Edmonton","AB","T6A3B1","(780) 461-7683","Private School","53.5475549","-113.4439862","2017-03-16 21:15:31","0","-6","-10","12","-12","2","11","-14","18","-10","1","6","-6","-4","-12","2012","2013","2017-03-16 21:16:27"
"1022","Learning Store West Edmonton","9532 - 163 Street NW","","Edmonton","AB","T5P3M7","(780) 443-8072","Public","53.532879711955","-113.6028126086","2017-03-16 21:15:31","0","0","0","0","0","0","0","0","0","0","0","0","11","41","52","2012","2013","2017-03-16 21:16:27"
"1024","St. John Bosco","7411 - 161A Avenue","","Edmonton","AB","T5Z3V4","(780) 471-3140","Separate","53.621918","-113.4575304","2017-03-16 21:15:31","0","9","14","-24","21","5","4","-15","0","0","0","0","0","0","14","2012","2013","2017-03-16 21:16:27"
"1025","Father Michael Troy Junior High","3630 23 Street","","Edmonton","AB","T6T1W7","","Separate","53.4720958","-113.3775492","2017-03-16 21:15:31","0","0","0","0","0","0","0","0","26","-41","30","0","0","0","15","2012","2013","2017-03-16 21:16:27"
"1026","Archbishop Joseph MacNeil","750 Leger Way","","Edmonton","AB","T6R3H4","","Separate","53.46008524711","-113.57723896138","2017-03-16 21:15:31","0","-3","4","-10","1","-5","-19","19","8","-11","0","0","0","0","-16","2012","2013","2017-03-16 21:16:27"
"1027","St. Teresa of Calcutta Elementary School","9008 - 105A Avenue","","Edmonton","AB","T5H4P9","(780) 471-3631","Separate","53.552145969551","-113.47552766627","2017-03-16 21:15:31","0","-5","2","-1","4","-6","27","-11","0","0","0","0","0","0","10","2012","2013","2017-03-16 21:16:27"
"1028","Blessed Oscar Romero Catholic High School","17760 - 69 Avenue","","Edmonton","AB","T5T6X3","(780) 428-2705","Separate","53.504184245821","-113.629584","2017-03-16 21:15:31","0","0","0","0","0","0","0","0","0","0","0","50","8","-9","49","2012","2013","2017-03-16 21:16:27"
"1032","Corbett Hall Early Education Program","2-70 Corbett Hall","University of Alberta","Edmonton","AB","T6G2G4","(780) 492-5081","ECS Private Operator","53.5181022","-113.5237724","2017-03-16 21:15:31","0","1","0","0","0","0","0","0","0","0","0","0","0","0","1","2012","2013","2017-03-16 21:16:27"
"1075","STAR Catholic Outreach School","4906 - 50 Avenue","","Leduc","AB","T9E6W9","(780) 980-0955","Separate","53.264989681907","-113.55113064418","2017-03-16 21:15:31","0","0","0","0","0","0","0","0","0","0","0","9","21","11","41","2012","2013","2017-03-16 21:16:27"
"1120","Norwood Chinese School","11124-130 St","C/O Westmount School","Edmonton","AB","T5M0J2","(780) 908-6406","Private School","53.5588333","-113.5462366","2017-03-16 21:15:31","0","0","0","0","0","0","0","0","0","0","0","0","-2","2","0","2012","2013","2017-03-16 21:16:27"
"1127","Mother Earth's Children's Charter School","c/o St John's School","RR #5","Stony Plain","AB","T7Z1X5","(780) 702-7531","Charter","53.385166645163","-114.29010412542","2017-03-16 21:15:31","0","2","-3","4","4","-6","-2","-12","4","0","0","0","0","0","-9","2012","2013","2017-03-16 21:16:27"
"1156","Holy Spirit Catholic School","151 Crimson Drive","","Sherwood Park","AB","T8H2R2","","Separate","53.551958705489","-113.27453599867","2017-03-16 21:15:31","0","18","1","21","15","-18","20","-2","1","-2","-58","0","0","0","-4","2012","2013","2017-03-16 21:16:27"
"1163","Inner City High School","P.O. Box 11506","","Edmonton","AB","T5J3K7","(780) 424-9425","Private School","53.543276647275","-113.49782345715","2017-03-16 21:15:31","0","0","0","0","0","0","0","0","0","0","0","-3","17","5","19","2012","2013","2017-03-16 21:16:27"
"1166","White Cloud Head Start","11648 85 street","","Edmonton","AB","T5B0E5","(780) 486-2543","ECS Private Operator","53.5682509","-113.472232","2017-03-16 21:15:31","0","1","0","0","0","0","0","0","0","0","0","0","0","0","1","2012","2013","2017-03-16 21:16:27"
"1173","Clareview Head Start","9321 Jasper Avenue","","Edmonton","AB","T5H3T7","(780) 475-1020","ECS Private Operator","53.546269875636","-113.47609035715","2017-03-16 21:15:31","0","11","0","0","0","0","0","0","0","0","0","0","0","0","11","2012","2013","2017-03-16 21:16:27"
"1174","Alberta Health Services Youth Residential Treatment Centre","12315 - 125 Street","","Edmonton","AB","T5L0N4","(780) 644-2918","Separate","53.578699","-113.537231","2017-03-16 21:15:31","0","0","0","0","0","0","0","0","-1","0","0","-2","-1","-2","-6","2012","2013","2017-03-16 21:16:27"
"1221","Lakeland Ridge School","101 Crimson Drive","","Sherwood Park","AB","T8H2P1","(780) 416-9018","Public","53.552651945817","-113.27417967857","2017-03-16 21:15:31","0","-7","7","2","23","-36","18","-12","18","-23","23","0","0","0","13","2012","2013","2017-03-16 21:16:27"
"1234","EIPS Home Education","1604 Sherwood Drive","","Sherwood Park","AB","T8A0Z2","(780) 464-1899","Public","53.520257410735","-113.3176720176","2017-03-16 21:15:31","0","0","2","-2","2","-2","0","2","0","-1","1","0","-1","0","1","2012","2013","2017-03-16 21:16:27"
"1254","Aboriginal Head Start - Abbott Site","#204, 13229-146th Street","","Edmonton","AB","T5L 4S8","(780) 640-9799","ECS Private Operator","53.59298","-113.571707","2017-03-16 21:15:31","0","-6","0","0","0","0","0","0","0","0","0","0","0","0","-6","2012","2013","2017-03-16 21:16:27"
"1267","Greystone Centennial Middle School","130 Greystone Drive","","Spruce Grove","AB","T7X4P5","(780) 962-0357","Public","53.557021","-113.879503","2017-03-16 21:15:31","0","0","0","0","0","0","52","8","12","9","20","0","0","0","101","2012","2013","2017-03-16 21:16:27"
"1268","Holy Spirit Catholic School","100 Michigan Street","","Devon","AB","T9G2H6","(780) 987-5730","Separate","53.3554013","-113.7245274","2017-03-16 21:15:31","0","-4","0","-2","-13","1","-4","-9","0","6","0","0","0","0","-25","2012","2013","2017-03-16 21:16:27"
"1279","Calmar Elementary School","P.O. Box 1059","","Calmar","AB","T0C0V0","(780) 985-2228","Public","53.269448516192","-113.80684099415","2017-03-16 21:15:31","0","1","19","6","-3","3","-5","1","0","0","0","0","0","0","22","2012","2013","2017-03-16 21:16:27"
"1280","Allen Gray Child Development Centre","5005 - 28 Avenue","","Edmonton","AB","T6L7G1","(780) 469-9606","ECS Private Operator","53.4587911","-113.4226032","2017-03-16 21:15:31","0","-9","0","0","0","0","0","0","0","0","0","0","0","0","-9","2012","2013","2017-03-16 21:16:27"
"1282","Edmonton Christian Northeast School","5940 - 159 Avenue","","Edmonton","AB","T5Y0J5","(780) 408-7942","Public","53.620134","-113.431634","2017-03-16 21:15:31","0","15","-2","10","-3","3","-2","6","-12","-4","-2","0","0","0","9","2012","2013","2017-03-16 21:16:27"
"1283","Edmonton Christian West School","14345 McQueen Road","","Edmonton","AB","T5N3L5","(780) 408-7948","Public","53.5555077","-113.5688892","2017-03-16 21:15:31","0","4","-7","13","-19","-2","2","-2","1","-15","2","0","0","0","-23","2012","2013","2017-03-16 21:16:27"
"1295","Meadows Baptist Academy","2215 - 17 Street","","Edmonton","AB","T6T1J1","(780) 440-1195","Private School","53.453535266249","-113.36800078571","2017-03-16 21:15:31","0","-4","-8","-6","-9","-2","-15","-11","-14","-5","-17","-6","-5","-1","-103","2012","2013","2017-03-16 21:16:27"
"1318","Fresh Start Millwoods","2849 Millwoods Rd. West","","Edmonton","AB","T6K4A9","(780) 944-2002","Separate","53.459549038258","-113.44663733862","2017-03-16 21:15:31","0","0","0","0","0","0","0","0","0","0","2","-12","6","8","4","2012","2013","2017-03-16 21:16:27"
"1321","Bright Bank Academy","4300 - 43 Street","","Stony Plain","AB","T7Z1J4","(780) 963-6064","Public","53.537016","-113.993727","2017-03-16 21:15:31","0","0","0","-1","0","1","-2","2","0","0","0","0","0","0","0","2012","2013","2017-03-16 21:16:27"
"1343","Children's Autism Services of Edmonton","17451-103 Avenue","","Edmonton","AB","T5S1J4","(780) 495-9235","ECS Private Operator","53.544909025064","-113.62129786243","2017-03-16 21:15:31","0","6","0","0","0","0","0","0","0","0","0","0","0","0","6","2012","2013","2017-03-16 21:16:27"
"1344","Lillian Osborne High School","2019 Leger Road NW","","Edmonton","AB","T6R0R9","(780) 391-2450","Public","53.457147285739","-113.58019691667","2017-03-16 21:15:31","0","0","0","0","0","0","0","0","0","0","0","-18","40","0","22","2012","2013","2017-03-16 21:16:27"
"1362","EIPS Centre for Educational Alternatives","1604 Sherwood Drive","","Sherwood Park","AB","T8A0Z2","(780) 464-1899","Public","53.520145783224","-113.31777394155","2017-03-16 21:15:31","0","0","-1","2","2","1","-1","3","1","-3","0","0","0","0","4","2012","2013","2017-03-16 21:16:27"
"1367","Strathcona Christian Academy Elementary School","52362 Range Road 231","","Sherwood Park","AB","T8B0A3","(780) 449-2787","Public","53.508958889617","-113.27271418864","2017-03-16 21:15:31","0","2","0","-11","7","-4","4","-2","0","0","0","0","0","0","-4","2012","2013","2017-03-16 21:16:27"
"1371","?cole A la D?couverte","13410 - 119 Street","","Edmonton","AB","T5E5N1","(780) 474-9547","Francophone","53.5953134","-113.5275504","2017-03-16 21:15:31","0","9","9","10","0","0","13","0","0","0","0","0","0","0","41","2012","2013","2017-03-16 21:16:27"
"1387","Aurora Learning Foundation","0","51559 RR 225","Sherwood Park","AB","T8C1H5","(780) 464-4010","Private School","53.450326659065","-113.22075114501","2017-03-16 21:15:31","0","0","0","0","2","-2","0","2","-2","0","-1","1","0","0","0","2012","2013","2017-03-16 21:16:27"
"1427","Sister Annata Brockman Catholic Elementary/Junior High School","355 Hemingway Road NW","","Edmonton","AB","T6M0L7","(780) 444-0250","Separate","53.490988833778","-113.68289912223","2017-03-16 21:15:31","0","-26","-7","18","4","11","10","-5","14","-14","6","0","0","0","11","2012","2013","2017-03-16 21:16:27"
"1428","Monsignor William Irwin Catholic Elementary School","2629 Taylor Green NW","","Edmonton","AB","T6R3N8","(780) 430-1121","Separate","53.447789489274","-113.5752944029","2017-03-16 21:15:31","0","12","-16","27","20","12","59","0","0","0","0","0","0","0","114","2012","2013","2017-03-16 21:16:27"
"1429","Monsignor Fee Otterson Catholic Elementary/Junior High School","1834 Rutherford Road SW","","Edmonton","AB","T6W0N5","(780) 430-8015","Separate","53.416974242517","-113.5229280381","2017-03-16 21:15:31","0","33","10","-3","16","-1","22","-15","9","22","-5","0","0","0","88","2012","2013","2017-03-16 21:16:27"
"1430","Mother Margaret Mary Catholic High School","2010 Leger Rd.","","Edmonton","AB","T6R0R9","(780) 988-2279","Separate","53.459901377794","-113.58193444484","2017-03-16 21:15:31","0","0","0","0","0","0","0","0","0","0","13","42","81","0","136","2012","2013","2017-03-16 21:16:27"
"1444","St. Teresa Catholic Outreach School","120 Hillside Centre","636 King Street","Spruce Grove","AB","T7X4K5","(780) 960-0475","Separate","53.5574245","-113.8945189","2017-03-16 21:15:31","0","0","0","0","0","0","0","0","0","1","0","-1","-5","24","19","2012","2013","2017-03-16 21:16:27"
"1455","Johnny Bright School","1331 Rutherford Road SW","","Edmonton","AB","T6W1P4","(780) 437-1341","Public","53.419256175754","-113.53525741639","2017-03-16 21:15:31","0","4","7","2","38","-2","0","2","-1","-79","-73","0","0","0","-102","2012","2013","2017-03-16 21:16:27"
"1456","Dr. Donald Massey School","5435 - 162 Ave NW","","Edmonton","AB","T5Y0E8","(780) 457-5435","Public","53.6233828","-113.4216772","2017-03-16 21:15:31","0","2","3","26","10","4","-14","-2","-8","16","11","0","0","0","48","2012","2013","2017-03-16 21:16:27"
"1457","Florence Hallock School","16437 - 87 St. NW","","Edmonton","AB","T5Z3X1","(780) 478-1410","Public","53.6269582","-113.4745856","2017-03-16 21:15:31","0","1","-7","15","4","9","0","-10","-6","-8","15","0","0","0","13","2012","2013","2017-03-16 21:16:27"
"1458","A. Blair McPherson School","430 Tamarack Green NW","","Edmonton","AB","T6T0J4","(780) 468-4361","Public","53.469712790705","-113.36192113757","2017-03-16 21:15:31","0","32","15","18","22","30","12","37","-44","40","-17","0","0","0","145","2012","2013","2017-03-16 21:16:27"
"1459","Elizabeth Finch School","13815 - 160 Ave NW","","Edmonton","AB","T6V0C9","(780) 457-2022","Public","53.62080262977","-113.55951352223","2017-03-16 21:15:31","0","17","6","32","34","15","5","12","13","21","13","0","0","0","168","2012","2013","2017-03-16 21:16:27"
"1460","Esther Starkman School","2717 Terwillegar Way NW","","Edmonton","AB","T6R0G5","(780) 439-2717","Public","53.446186","-113.57353","2017-03-16 21:15:31","0","3","0","16","15","0","15","-5","-46","-96","-86","0","0","0","-184","2012","2013","2017-03-16 21:16:27"
"1466","?cole Joseph-Moreau","9750 - 74 Avenue","","Edmonton","AB","T6E1E8","(780) 436-6303","Francophone","53.510669","-113.481409","2017-03-16 21:15:31","0","0","0","0","0","0","0","0","-15","15","-5","0","0","0","-5","2012","2013","2017-03-16 21:16:27"
"1467","?cole Alexandre-Tach","9-B Avenue Saint-Vital","","St. Albert","AB","T8N1K1","(780) 458-4878","Francophone","53.65920450216","-113.62417139172","2017-03-16 21:15:31","0","0","0","0","0","0","0","0","-8","4","2","-2","5","4","5","2012","2013","2017-03-16 21:16:27"
"1496","Academie Saint-Andre Academy","5811 Rue Eaglemont","","Beaumont","AB","T4X0X1","(780) 929-2961","Separate","53.3606828","-113.4304915","2017-03-16 21:15:31","0","-12","-7","35","9","17","11","0","0","0","0","0","0","0","53","2012","2013","2017-03-16 21:16:27"
"1522","Revelation On-Line","9624 - 108 Avenue","","Edmonton","AB","T5H1A4","(780) 989-3000","Separate","53.554316","-113.488","2017-03-16 21:15:31","0","0","0","0","0","0","0","0","0","0","0","844","235","117","1196","2012","2013","2017-03-16 21:16:27"
"1557","MAC Islamic School","11342 - 127 Street","","Edmonton","AB","T5M0T8","(780) 453-2220","Private School","53.563305","-113.542019","2017-03-16 21:15:31","0","16","4","7","10","-2","14","0","0","0","0","0","0","0","49","2012","2013","2017-03-16 21:16:27"
"1566","Genesis Early Learning Centre","10537 - 44 Street","","Edmonton","AB","T6A1W1","","Separate","53.549744742707","-113.40937161244","2017-03-16 21:15:31","0","101","0","0","0","0","0","0","0","0","0","0","0","0","101","2012","2013","2017-03-16 21:16:27"
"1576","Alberta Health Services Intensive Day Treatment Youth Program","12325 - 140 Street","","Edmonton","AB","T5L2C9","(780) 422-7383","Separate","53.576638363247","-113.56250435847","2017-03-16 21:15:31","0","0","0","0","0","0","0","0","0","0","1","-2","-8","-1","-10","2012","2013","2017-03-16 21:16:27"
"1577","Bessie Nichols School","189 Hemingway Road NW","","Edmonton","AB","T6M2Z7","(780) 444-1922","Public","53.487217056271","-113.67178248333","2017-03-16 21:15:31","0","12","62","-3","21","17","20","8","18","47","1","0","0","0","203","2012","2013","2017-03-16 21:16:27"
"1578","Michael Strembitsky School","4110 Savaryn Drive SW","","Edmonton","AB","T6X0Z7","(780) 392-3500","Public","53.4133513","-113.4609009","2017-03-16 21:15:31","0","46","34","63","22","35","41","26","-9","31","17","0","0","0","306","2012","2013","2017-03-16 21:16:27"
"1582","Morinville Public School","10020 - 101 Avenue","","Morinville","AB","T8R1L5","(780) 939-3445","Public","53.804466113612","-113.6474312209","2017-03-16 21:15:31","0","38","40","4","14","16","11","17","0","0","0","0","0","0","140","2012","2013","2017-03-16 21:16:27"
"1592","Seden Centre for Child Development and Wellness","Wild Rose Square","182 Sioux Road","Sherwood Park","AB","T8A3X5","","ECS Private Operator","53.534111972779","-113.32751103558","2017-03-16 21:15:31","0","4","0","0","0","0","0","0","0","0","0","0","0","0","4","2012","2013","2017-03-16 21:16:27"
"1599","Elk Island Youth Ranch Learning Centre","c/o 683 Wye Road","","Sherwood Park","AB","T8B1N2","(780) 417-8202","Public","53.5113515","-113.2722977","2017-03-16 21:15:31","0","0","0","0","0","0","0","0","-1","-3","5","1","1","-2","1","2012","2013","2017-03-16 21:16:27"
"1600","Waldorf Independent School of Edmonton","7211 - 96A Avenue","","Edmonton","AB","T6E1B5","","Private School","53.534248449299","-113.48498664974","2017-03-16 21:15:31","0","6","10","7","7","7","-1","1","0","0","0","0","0","0","37","2012","2013","2017-03-16 21:16:27"
"1684","St. Peter the Apostle Catholic High School","10 Harvest Ridge Drive","","Spruce Grove","AB","T7X0L3","(780) 962-6618","Separate","53.556749699943","-113.9506730439","2017-03-16 21:15:31","0","0","0","0","0","0","0","0","0","0","-25","16","13","-34","-30","2012","2013","2017-03-16 21:16:27"
"1689","Black Gold Outreach - Beaumont","5202 - 50 Street","","Beaumont","AB","T4X1E5","(780) 929-5468","Public","53.352724894409","-113.41404776851","2017-03-16 21:15:31","0","0","0","0","0","0","0","0","0","0","0","2","-6","21","17","2012","2013","2017-03-16 21:16:27"
"2034","St. John Paul II Catholic School","9975 - 93 Avenue","","Fort Saskatchewan","AB","T8L1N5","(780) 992-0889","Separate","53.700545","-113.209719","2017-03-16 21:15:31","0","0","0","0","0","0","0","0","0","0","-14","3","0","9","-2","2012","2013","2017-03-16 21:16:27"
"2037","St. John XXIII Catholic School","9526 - 89 Street","","Fort Saskatchewan","AB","T8L2X7","(780) 998-7777","Separate","53.695321","-113.238203","2017-03-16 21:15:31","0","20","-24","28","2","2","0","0","0","0","0","0","0","0","28","2012","2013","2017-03-16 21:16:27"
"2038","Our Lady of The Angels Catholic School","9622 Sherridon Drive","","Fort Saskatchewan","AB","T8L1W7","(780) 998-3716","Separate","53.706187949307","-113.21891526257","2017-03-16 21:15:31","0","0","0","0","0","0","5","-17","53","-1","0","0","0","0","40","2012","2013","2017-03-16 21:16:27"
"2039","Our Lady of Perpetual Help Catholic School","273 Fir Street","","Sherwood Park","AB","T8A2G7","(780) 467-5631","Separate","53.518076938998","-113.30382159392","2017-03-16 21:15:31","0","-70","-69","-82","-74","-70","-12","-3","21","-8","-62","0","0","0","-429","2012","2013","2017-03-16 21:16:27"
"2040","Ecole Pere Kenneth Kearns Catholic School","8 Sandpiper Drive","","Sherwood Park","AB","T8A0B6","(780) 467-7135","Separate","53.5240243","-113.2927826","2017-03-16 21:15:31","0","13","21","26","36","19","-36","-43","0","0","0","0","0","0","36","2012","2013","2017-03-16 21:16:27"
"2041","Archbishop Jordan Catholic High School","4001 Emerald Drive","","Sherwood Park","AB","T8H0P5","(780) 467-2121","Separate","53.566494896259","-113.28728244415","2017-03-16 21:15:31","0","0","0","0","0","0","0","0","0","0","258","11","12","-21","260","2012","2013","2017-03-16 21:16:27"
"2045","Jean Vanier Catholic School","109 Georgian Way","","Sherwood Park","AB","T8A3K9","(780) 467-3633","Separate","53.536037613471","-113.2832680344","2017-03-16 21:15:31","0","48","55","33","40","44","-18","-25","-47","-45","-58","0","0","0","27","2012","2013","2017-03-16 21:16:27"
"2046","Madonna Catholic School","15 Main Boulevard","","Sherwood Park","AB","T8A3N3","(780) 467-7972","Separate","53.537971071273","-113.31604837302","2017-03-16 21:15:31","0","15","28","30","17","47","-26","-21","-8","-12","-12","0","0","0","58","2012","2013","2017-03-16 21:16:27"
"2047","St. Theresa Catholic School","2021 Brentwood Boulevard","","Sherwood Park","AB","T8A0X2","(780) 464-4001","Separate","53.528780187321","-113.29865902447","2017-03-16 21:15:31","0","-33","-21","-24","-38","-17","50","105","90","55","-45","0","0","0","122","2012","2013","2017-03-16 21:16:27"
"2051","St. Luke Catholic School","22139 South Cooking Lake","","Sherwood Park","AB","T8E1G9","(780) 922-5920","Separate","53.414502000287","-113.12797036378","2017-03-16 21:15:31","0","0","-5","0","-2","-3","4","8","0","-6","-8","0","0","0","-12","2012","2013","2017-03-16 21:16:27"
"2053","Holy Redeemer Catholic School","53117 R.R. 222","","Ardrossan","AB","T8E2M8","(780) 922-4522","Separate","53.559398387644","-113.14671427249","2017-03-16 21:15:31","0","-10","4","-5","-5","-6","7","-4","-10","-1","-9","0","0","0","-39","2012","2013","2017-03-16 21:16:27"
"2098","NorQuest College (Stony Plain)","3201 - 43 Avenue","","Stony Plain","AB","T7V1L1","(780) 968-6489","Provincial","53.540141623306","-113.97550263676","2017-03-16 21:15:31","0","0","0","0","0","0","0","0","0","0","0","-8","2","1","-5","2012","2013","2017-03-16 21:16:27"
"2204","Duffield School","P.O. Box 479","","Duffield","AB","T0E0N0","(780) 892-2644","Public","53.525580150564","-114.34205024937","2017-03-16 21:15:31","0","3","3","-9","7","-3","-4","-4","-4","12","-11","0","0","0","-10","2012","2013","2017-03-16 21:16:27"
"2205","Entwistle School","P.O. Box 128","","Entwistle","AB","T0E0S0","(780) 727-3811","Public","53.59849658621","-114.99431997496","2017-03-16 21:15:31","0","5","-1","3","5","-1","0","-1","-1","-1","4","0","0","0","12","2012","2013","2017-03-16 21:16:27"
"2207","Seba Beach School","General Delivery","","Seba Beach","AB","T0E2B0","(780) 797-3733","Public","53.560780549854","-114.73948814962","2017-03-16 21:15:31","0","-4","-2","4","-7","-4","-3","5","-1","-4","-1","0","0","0","-17","2012","2013","2017-03-16 21:16:27"
"2208","Spruce Grove Composite High School","1000 Calahoo Road","","Spruce Grove","AB","T7X2T7","(780) 962-0800","Public","53.556500620227","-113.90868977777","2017-03-16 21:15:31","0","0","0","0","0","0","0","0","0","0","0","23","28","28","79","2012","2013","2017-03-16 21:16:27"
"2209","Memorial Composite High School","50 Westerra Centre","","Stony Plain","AB","T7Z1R3","(780) 963-2255","Public","53.5055448","-113.9863277","2017-03-16 21:15:31","0","0","0","0","0","0","0","0","0","0","0","36","-28","10","18","2012","2013","2017-03-16 21:16:27"
"2210","Stony Plain Central School","5108 - 55 Avenue","","Stony Plain","AB","T7Z1R4","(780) 963-2203","Public","53.522358926088","-114.0104989352","2017-03-16 21:15:31","0","20","-15","6","11","8","2","-5","1","1","1","0","0","0","30","2012","2013","2017-03-16 21:16:27"
"2211","High Park School","40 Highridge Way","","Stony Plain","AB","T7Z1R6","(780) 963-2222","Public","53.515814","-113.987832","2017-03-16 21:15:31","0","-4","8","-16","13","-2","0","-7","2","-6","12","0","0","0","0","2012","2013","2017-03-16 21:16:27"
"2212","Wabamun School","General Delivery","","Wabamun","AB","T0E2K0","(780) 892-2271","Public","53.559813205205","-114.46749727526","2017-03-16 21:15:31","0","-6","8","-7","2","3","0","-2","1","5","7","0","0","0","11","2012","2013","2017-03-16 21:16:27"
"2214","Tomahawk School","P.O. Box 250","","Tomahawk","AB","T0E2H0","(780) 339-3935","Public","53.395279301804","-114.77849894112","2017-03-16 21:15:31","0","6","-6","1","-2","0","1","5","-5","-3","3","0","0","0","0","2012","2013","2017-03-16 21:16:27"
"2217","Parkland Village School","28 - 53222, R.R. 272","","Spruce Grove","AB","T7X3X6","(780) 962-8121","Public","53.580680323587","-113.89080411603","2017-03-16 21:15:31","0","-1","6","11","2","-10","0","0","0","0","0","0","0","0","8","2012","2013","2017-03-16 21:16:27"
"2219","Brookwood School","460 King Street","","Spruce Grove","AB","T7X2T6","(780) 962-3942","Public","53.5503519","-113.896551","2017-03-16 21:15:31","0","10","9","-10","23","-11","0","0","0","0","0","0","0","0","21","2012","2013","2017-03-16 21:16:27"
"2220","Ecole Meridian Heights School","4119 - 43 Street","","Stony Plain","AB","T7Z1R2","(780) 963-2289","Public","53.537652","-113.992297","2017-03-16 21:15:31","0","19","2","10","18","-18","11","9","0","-9","-4","0","0","0","38","2012","2013","2017-03-16 21:16:27"
"2221","Woodhaven Middle School","475 King Street","","Spruce Grove","AB","T7X0A4","(780) 962-2626","Public","53.550668965108","-113.89992160371","2017-03-16 21:15:31","0","0","0","0","0","0","17","-7","10","-27","21","0","0","0","14","2012","2013","2017-03-16 21:16:27"
"2224","Millgrove School","851 Calahoo Road","","Spruce Grove","AB","T7X2M1","(780) 962-6122","Public","53.552136","-113.911392","2017-03-16 21:15:31","0","-8","23","3","9","5","0","0","0","0","0","0","0","0","32","2012","2013","2017-03-16 21:16:27"
"2225","Forest Green School","5210 - 45 Street","","Stony Plain","AB","T7Z1R5","(780) 963-7366","Public","53.526070577008","-113.99672758284","2017-03-16 21:15:31","0","1","11","-7","9","-6","-2","0","0","0","0","0","0","0","6","2012","2013","2017-03-16 21:16:27"
"2226","Muir Lake School","53422 SH779","Mail Bag 500","Stony Plain","AB","T7Z1Y5","(780) 963-3535","Public","53.6086226","-114.0034999","2017-03-16 21:15:31","0","-4","7","3","4","-1","5","-15","3","-1","5","0","0","0","6","2012","2013","2017-03-16 21:16:27"
"2227","Blueberry School","Mail Bag 700","","Stony Plain","AB","T7Z1Y6","(780) 963-3625","Public","53.542846549328","-114.14584419576","2017-03-16 21:15:31","0","-8","8","-7","16","-15","-1","4","-3","8","-4","0","0","0","-2","2012","2013","2017-03-16 21:16:27"
"2228","Ecole Broxton Park School","505 McLeod Avenue","","Spruce Grove","AB","T7X2Y5","(780) 962-0212","Public","53.543556982558","-113.89682589895","2017-03-16 21:15:31","0","57","5","-4","17","-6","9","6","6","11","4","0","0","0","105","2012","2013","2017-03-16 21:16:27"
"2229","Graminia School","51101 Range Road 271","","Spruce Grove","AB","T7Y1G7","(780) 963-5035","Public","53.382919369806","-113.85823169469","2017-03-16 21:15:31","0","-4","-2","-10","20","1","-7","-4","16","-26","7","0","0","0","-9","2012","2013","2017-03-16 21:16:27"
"2233","Spruce Grove Composite High School Outreach","1000 Calahoo Road","","Spruce Grove","AB","T7X2T7","(780) 962-1414","Public","53.557284522506","-113.90904382936","2017-03-16 21:15:31","0","0","0","0","0","0","0","0","0","0","0","-5","-29","-18","-52","2012","2013","2017-03-16 21:16:27"
"2234","Memorial Composite High School Outreach","200, 71 Boulder Blvd","","Stony Plain","AB","T7Z1V6","(780) 963-0840","Public","53.542941660336","-113.97966641964","2017-03-16 21:15:31","0","0","0","0","0","0","0","0","0","0","0","-45","-19","7","-57","2012","2013","2017-03-16 21:16:27"
"2235","Connections for Learning","4300 - 43 Street","","Stony Plain","AB","T7Z1J4","(780) 963-0507","Public","53.537016","-113.993727","2017-03-16 21:15:31","0","0","5","-10","0","-2","3","-4","6","-4","-2","-4","0","-13","-25","2012","2013","2017-03-16 21:16:27"
"2271","St. Joseph Catholic School","195 Weston Drive","","Spruce Grove","AB","T7X1V1","(780) 962-8788","Separate","53.546667","-113.919208","2017-03-16 21:15:31","0","-12","26","-19","21","-2","0","0","0","0","0","0","0","0","14","2012","2013","2017-03-16 21:16:27"
"2272","St. John Paul II Catholic School","5801 - 48 Street","","Stony Plain","AB","T7Z1R7","(780) 963-2526","Separate","53.519675","-113.999675","2017-03-16 21:15:31","0","8","-2","8","-4","-5","0","14","10","-13","0","0","0","0","16","2012","2013","2017-03-16 21:16:27"
"2273","St. Marguerite Catholic School","395 Grove Drive","","Spruce Grove","AB","T7X2Y7","(780) 962-8787","Separate","53.556857","-113.887453","2017-03-16 21:15:31","0","-23","11","-10","9","6","0","0","0","0","0","0","0","0","-7","2012","2013","2017-03-16 21:16:27"
"2274","St. Thomas Aquinas Catholic School","381 Grove Drive","","Spruce Grove","AB","T7X2Y9","(780) 962-1585","Separate","53.556999037926","-113.88946250066","2017-03-16 21:15:31","0","0","0","0","0","0","-17","12","2","12","0","0","0","0","9","2012","2013","2017-03-16 21:16:27"
"2290","St. Matthew Lutheran Christian Academy","5014 - 53 Avenue","","Stony Plain","AB","T7Z1R8","(780) 963-2715","Private School","53.526253400272","-114.00934358532","2017-03-16 21:15:31","0","-12","-3","4","-6","-9","5","3","6","-4","8","0","0","0","-8","2012","2013","2017-03-16 21:16:27"
"2293","Parkland Immanuel Christian School","21304 - 35 Avenue N.W.","","Edmonton","AB","T6M2P6","(780) 444-6443","Private School","53.469727487377","-113.68492550066","2017-03-16 21:15:31","0","-2","8","1","-10","14","-1","-1","11","-10","9","2","-3","2","20","2012","2013","2017-03-16 21:16:27"
"2299","Living Waters Christian Academy","5 Grove Drive W.","","Spruce Grove","AB","T7X3X8","(780) 962-3331","Private School","53.558678933016","-113.93673029529","2017-03-16 21:15:31","0","-11","0","10","-13","5","1","4","-13","1","-9","8","-3","-8","-28","2012","2013","2017-03-16 21:16:27"
"2501","Bon Accord Community School","Box 300","","Bon Accord","AB","T0A0K0","(780) 921-3559","Public","53.833237124017","-113.42099700632","2017-03-16 21:15:31","0","1","-3","5","16","-10","0","0","0","0","0","0","0","0","9","2012","2013","2017-03-16 21:16:27"
"2502","Camilla School","#146, 26500 Hwy 44","","Sturgeon County","AB","T8R0J3","(780) 939-2074","Public","53.776196893624","-113.8423798078","2017-03-16 21:15:31","0","-1","5","-6","3","-12","4","8","-6","10","-16","0","0","0","-11","2012","2013","2017-03-16 21:16:27"
"2504","Gibbons School","Box 840","","Gibbons","AB","T0A1N0","(780) 923-2240","Public","53.830110619739","-113.32643963862","2017-03-16 21:15:31","0","0","0","0","0","-1","-6","12","8","-12","6","0","0","0","7","2012","2013","2017-03-16 21:16:27"
"2506","Sturgeon Heights School","50 Hogan Road","","St. Albert","AB","T8N1M8","(780) 459-3990","Public","53.654454689129","-113.66541959105","2017-03-16 21:15:31","0","36","-1","10","2","-5","4","-6","3","-12","14","0","0","0","45","2012","2013","2017-03-16 21:16:27"
"2507","Namao School","#2, 24400 Hwy 37","","Sturgeon County","AB","T8T0E9","(780) 973-9191","Public","53.716665287826","-113.49674885989","2017-03-16 21:15:31","0","-4","-1","6","2","11","0","-13","21","-16","13","0","0","0","19","2012","2013","2017-03-16 21:16:27"
"2508","Morinville Colony School","56430 Hwy 44","","Morinville","AB","T8R1P5","(780) 939-2012","Public","53.799681255756","-113.65394342939","2017-03-16 21:15:31","0","8","2","-2","-3","3","0","2","-2","2","0","0","0","0","10","2012","2013","2017-03-16 21:16:27"
"2509","Oak Hill School","Box 488","","Bon Accord","AB","T0A0K0","(780) 921-3011","Public","53.834542973056","-113.41584113004","2017-03-16 21:15:31","0","0","0","0","0","-1","0","2","4","-3","-4","0","0","0","-2","2012","2013","2017-03-16 21:16:27"
"2510","Sturgeon Composite High School","#30 - 24400 HWY 37","","Sturgeon County","AB","T8T0E9","(780) 973-3301","Public","53.717268447723","-113.48518317462","2017-03-16 21:15:31","0","0","0","0","0","0","0","0","0","0","0","-20","-20","-4","-44","2012","2013","2017-03-16 21:16:27"
"2512","Landing Trail School","Box 1050","","Gibbons","AB","T0A1N0","(780) 923-2898","Public","53.812440724058","-113.3343467908","2017-03-16 21:15:31","0","2","0","0","15","-4","0","0","0","0","0","0","0","0","13","2012","2013","2017-03-16 21:16:27"
"2513","Ochre Park School","Box 30","","Redwater","AB","T0A2W0","(780) 942-2902","Public","53.952326454556","-113.13600243314","2017-03-16 21:15:31","0","-17","-4","1","1","1","0","0","0","0","0","0","0","0","-18","2012","2013","2017-03-16 21:16:27"
"2514","Lilian Schick School","Box 689","","Bon Accord","AB","T0A0K0","(780) 921-2200","Public","53.838788679576","-113.40011466804","2017-03-16 21:15:31","0","0","0","0","0","0","11","3","-10","-13","5","0","0","0","-4","2012","2013","2017-03-16 21:16:27"
"2516","Sturgeon Learning Centre","Box 300","","Gibbons","AB","T0A1N0","(780) 923-2443","Public","53.830775470327","-113.32834937144","2017-03-16 21:15:31","0","0","0","0","0","0","0","0","0","0","0","2","0","-1","1","2012","2013","2017-03-16 21:16:27"
"2535","Legal School","P.O. Box 120","","Legal","AB","T0G1L0","(780) 961-3791","Separate","53.950735992178","-113.59030126204","2017-03-16 21:15:31","0","6","-6","1","7","-11","4","4","-3","3","3","0","0","0","8","2012","2013","2017-03-16 21:16:27"
"2536","Ecole Citadelle","P.O. Box 28","5111 - 46 Street","Legal","AB","T0G1L0","(780) 961-3557","Francophone","53.950547083314","-113.5886146527","2017-03-16 21:15:31","0","-5","-4","9","-12","5","-8","6","0","-4","3","0","0","0","-10","2012","2013","2017-03-16 21:16:27"
"2537","Ecole La Mission","46 Heritage Drive","","St. Albert","AB","T8N7J5","(780) 459-9568","Francophone","53.60833","-113.626131","2017-03-16 21:15:31","0","13","-9","2","7","6","-13","5","0","0","0","0","0","0","11","2012","2013","2017-03-16 21:16:27"
"2540","Leo Nickerson Elementary","10 Sycamore Avenue","","St. Albert","AB","T8N0K3","(780) 459-4426","Public","53.629460173535","-113.60744629696","2017-03-16 21:15:31","0","3","12","17","19","1","18","11","0","0","0","0","0","0","81","2012","2013","2017-03-16 21:16:27"
"2541","Paul Kane High School","12 Cunningham Road","","St. Albert","AB","T8N2E9","(780) 459-4405","Public","53.632585847942","-113.6117512295","2017-03-16 21:15:31","0","0","0","0","0","0","0","0","0","0","0","41","-18","31","54","2012","2013","2017-03-16 21:16:27"
"2542","Sir Alexander Mackenzie School","61 Sir Winston Churchill Ave","","St. Albert","AB","T8N0G5","(780) 459-4467","Public","53.636045691476","-113.6118944397","2017-03-16 21:15:31","0","-17","8","-8","5","3","1","10","0","0","0","0","0","0","2","2012","2013","2017-03-16 21:16:27"
"2543","Sir George Simpson Junior High","50 Grosvenor Boulevard","","St. Albert","AB","T8N0X6","(780) 459-4456","Public","53.621092642821","-113.62454164418","2017-03-16 21:15:31","0","0","0","0","0","0","0","0","3","0","-23","0","0","0","-20","2012","2013","2017-03-16 21:16:27"
"2544","Robert Rundle Elementary","50A Grosvenor Boulevard","","St. Albert","AB","T8N0X6","(780) 459-4475","Public","53.621518996136","-113.62473476323","2017-03-16 21:15:31","0","-1","7","-17","10","-14","13","-8","0","0","0","0","0","0","-10","2012","2013","2017-03-16 21:16:27"
"2545","Lorne Akins Junior High School","4 Fairview Boulevard","","St. Albert","AB","T8N2G1","(780) 460-3728","Public","53.634228462124","-113.60776649525","2017-03-16 21:15:31","0","0","0","0","0","0","0","0","12","-17","-1","0","0","0","-6","2012","2013","2017-03-16 21:16:27"
"2546","Ronald Harvey Elementary","15 Langley Avenue","","St. Albert","AB","T8N1S4","(780) 459-5541","Public","53.641155197565","-113.64193474736","2017-03-16 21:15:31","0","-7","9","-10","13","-2","5","20","0","0","0","0","0","0","28","2012","2013","2017-03-16 21:16:27"
"2550","William D Cuts School","149 Larose Drive","","St. Albert","AB","T8N2X7","(780) 458-8585","Public","53.648041382512","-113.6444502123","2017-03-16 21:15:31","0","0","0","0","0","0","0","0","4","21","-9","0","0","0","16","2012","2013","2017-03-16 21:16:27"
"2551","Wild Rose Elementary School","58 Grenfell Avenue","","St. Albert","AB","T8N2Z9","(780) 460-3737","Public","53.620194909229","-113.63621083069","2017-03-16 21:15:31","0","11","-7","1","2","-3","-1","10","0","0","0","0","0","0","13","2012","2013","2017-03-16 21:16:27"
"2552","Elmer S Gish School","75 Akins Drive","","St. Albert","AB","T8N3A5","(780) 459-7766","Public","53.631586","-113.586325","2017-03-16 21:15:31","0","18","-12","41","0","13","17","14","8","2","10","0","0","0","111","2012","2013","2017-03-16 21:16:27"
"2554","Keenooshayo Elementary School","40 Woodlands Road","","St. Albert","AB","T8N3X3","(780) 459-3114","Public","53.647987065232","-113.60286881615","2017-03-16 21:15:31","0","6","10","-4","3","3","-5","-5","0","0","0","0","0","0","8","2012","2013","2017-03-16 21:16:27"
"2556","Bellerose Composite High School","49 Giroux Road","","St. Albert","AB","T8N6N4","(780) 460-8490","Public","53.647942548995","-113.65912632408","2017-03-16 21:15:31","0","0","0","0","0","0","0","0","0","0","0","41","-30","67","78","2012","2013","2017-03-16 21:16:27"
"2557","Muriel Martin Elementary School","110 Deer Ridge Drive","","St. Albert","AB","T8N5Z3","(780) 458-0205","Public","53.656135","-113.650131","2017-03-16 21:15:31","0","-2","17","-20","0","20","6","4","0","0","0","0","0","0","25","2012","2013","2017-03-16 21:16:27"
"2558","St. Albert Public Outreach","60 Sir Winston Churchill Ave","","St. Albert","AB","T8N0G4","(780) 458-0839","Public","53.635130993317","-113.61210192873","2017-03-16 21:15:31","0","13","0","0","0","0","0","0","0","0","5","-14","-9","-5","-10","2012","2013","2017-03-16 21:16:27"
"2571","Notre Dame Elementary School","9717 Morinville Drive","","Morinville","AB","T8R1M1","(780) 939-4020","Separate","53.798374945732","-113.63072113663","2017-03-16 21:15:31","0","-5","-6","-3","9","-9","0","0","0","0","0","0","0","0","-14","2012","2013","2017-03-16 21:16:27"
"2572","Georges H Primeau School","811 Grandin Drive","","Morinville","AB","T8R1L7","(780) 939-3593","Separate","53.808605","-113.630325","2017-03-16 21:15:31","0","0","0","0","0","0","-5","13","-17","-4","0","0","0","0","-13","2012","2013","2017-03-16 21:16:27"
"2574","St. Gabriel Cyber School","202 Mission Hill Plaza","398 St. Albert Trail","St. Albert","AB","T8N5J9","(780) 459-6616","Separate","53.644814920192","-113.62842142593","2017-03-16 21:15:31","0","0","0","0","0","0","0","0","0","0","-1","-49","3","10","-37","2012","2013","2017-03-16 21:16:27"
"2575","Albert Lacombe Catholic Elementary School","50 Gainsborough Avenue","","St. Albert","AB","T8N0W5","(780) 459-4478","Separate","53.617492585712","-113.63150110185","2017-03-16 21:15:31","0","3","0","-11","4","-6","-26","21","0","0","0","0","0","0","-15","2012","2013","2017-03-16 21:16:27"
"2577","St. Albert Catholic High School","33 Malmo Drive","","St. Albert","AB","T8N1L5","(780) 459-7781","Separate","53.636946888808","-113.63744802038","2017-03-16 21:15:31","0","0","0","0","0","0","0","0","0","0","0","58","32","-58","32","2012","2013","2017-03-16 21:16:27"
"2578","Vital Grandin Catholic School","39 Sunset Boulevard","","St. Albert","AB","T8N0N6","(780) 459-7734","Separate","53.62702233","-113.61348111639","2017-03-16 21:15:31","0","2","2","-18","-7","0","-10","2","0","0","0","0","0","0","-29","2012","2013","2017-03-16 21:16:27"
"2579","Vincent J Maloney Catholic School","20 Mont Clare Place","","St. Albert","AB","T8N1K9","(780) 458-1113","Separate","53.638066397076","-113.63650678043","2017-03-16 21:15:31","0","0","0","0","0","0","0","0","-7","-27","1","0","0","0","-33","2012","2013","2017-03-16 21:16:27"
"2580","Bertha Kennedy Catholic Community School","175 Larose Drive","","St. Albert","AB","T8N2G7","(780) 458-6101","Separate","53.646386","-113.642589","2017-03-16 21:15:31","0","0","7","1","-11","26","-10","-3","0","0","0","0","0","0","10","2012","2013","2017-03-16 21:16:27"
"2582","Ecole Father Jan Community School","15 Mission Avenue","","St. Albert","AB","T8N1H6","(780) 458-3300","Separate","53.635216874821","-113.62980348095","2017-03-16 21:15:31","0","0","-10","22","-4","-6","-17","18","0","0","0","0","0","0","3","2012","2013","2017-03-16 21:16:27"
"2584","Neil M Ross Catholic School","60 Woodlands Road","","St. Albert","AB","T8N3X3","(780) 459-1244","Separate","53.646687","-113.602578","2017-03-16 21:15:31","0","-13","7","-18","14","-17","6","-3","0","0","0","0","0","0","-24","2012","2013","2017-03-16 21:16:27"
"2587","Ecole Secondaire Sainte Marguerite d'Youville","51 Boudreau Road","","St. Albert","AB","T8N6B7","(780) 459-5702","Separate","53.640789330089","-113.59888144907","2017-03-16 21:15:31","0","0","0","0","0","0","0","0","-40","13","34","-29","-20","-31","-73","2012","2013","2017-03-16 21:16:27"
"2588","Ecole Marie Poburan","100 Sir Winston Churchill Ave","","St. Albert","AB","T8N5Y2","(780) 458-1112","Separate","53.641955","-113.598025","2017-03-16 21:15:31","0","9","-10","14","9","-4","1","14","0","0","0","0","0","0","33","2012","2013","2017-03-16 21:16:27"
"2589","Richard S Fowler Catholic Junior High School","65 Sir Winston Churchill Ave","","St. Albert","AB","T8N0G5","(780) 459-2644","Separate","53.637746116775","-113.60771269444","2017-03-16 21:15:31","0","0","0","0","0","0","0","0","-9","-7","25","0","0","0","9","2012","2013","2017-03-16 21:16:27"
"2593","Morinville Christian School","10515 100 Avenue","","Morinville","AB","T8R1A2","(780) 939-2987","Private School","53.801385796301","-113.65610483069","2017-03-16 21:15:31","0","-1","8","7","15","-8","-1","1","4","5","-12","8","3","-13","16","2012","2013","2017-03-16 21:16:27"
"2594","Morinville Community High School","9506 - 100 Avenue","","Morinville","AB","T8R1P6","(780) 939-6891","Separate","53.802189","-113.636491","2017-03-16 21:15:31","0","0","0","0","0","0","0","0","0","0","-10","14","-12","-14","-22","2012","2013","2017-03-16 21:16:27"
"2623","Redwater School","Box 790","","Redwater","AB","T0A2W0","(780) 942-3625","Public","53.951074790036","-113.11194838269","2017-03-16 21:15:31","0","0","0","0","0","0","-7","3","-11","-2","6","8","-5","-15","-23","2012","2013","2017-03-16 21:16:27"
"3000","Black Gold Home-Based School","3rd Floor, 1101 - 5 Street","","Nisku","AB","T9E7N3","","Public","53.310256979438","-113.53234112209","2017-03-16 21:15:31","0","0","2","2","1","-2","0","-3","2","-1","0","-5","-3","-10","-17","2012","2013","2017-03-16 21:16:27"
"3201","Ecole Bellevue School","5103 - 50 Avenue","","Beaumont","AB","T4X1K4","(780) 929-8663","Public","53.351980646242","-113.41846285383","2017-03-16 21:15:31","0","33","10","-9","-7","-1","0","0","0","0","0","0","0","0","26","2012","2013","2017-03-16 21:16:27"
"3204","Ecole J E Lapointe School","4801 - 55 Avenue","","Beaumont","AB","T4X1K2","(780) 929-5988","Public","53.356415","-113.411484","2017-03-16 21:15:31","0","0","0","0","0","-17","28","-35","34","-11","0","0","0","0","-1","2012","2013","2017-03-16 21:16:27"
"3206","Calmar Secondary School","Box 30","","Calmar","AB","T0C0V0","(780) 985-3515","Public","53.267761097409","-113.80443804827","2017-03-16 21:15:31","0","0","0","0","0","0","0","0","-1","-1","-3","16","0","-4","7","2012","2013","2017-03-16 21:16:27"
"3210","Caledonia Park School","3206 Coady Boulevard","","Leduc","AB","T9E7J8","(780) 986-7888","Public","53.245069","-113.526022","2017-03-16 21:15:31","0","-5","6","-12","21","6","2","1","6","11","-20","0","0","0","16","2012","2013","2017-03-16 21:16:27"
"3211","Ecole Corinthia Park School","127 Corinthia Drive","","Leduc","AB","T9E7J2","(780) 986-8404","Public","53.251487","-113.547246","2017-03-16 21:15:31","0","0","16","6","-1","8","-3","6","0","0","0","0","0","0","32","2012","2013","2017-03-16 21:16:27"
"3212","Leduc Composite High School","4308 - 50 Street","","Leduc","AB","T9E6K8","(780) 986-2248","Public","53.256897735929","-113.55075271059","2017-03-16 21:15:31","0","0","0","0","0","0","0","0","0","0","0","54","-2","-28","24","2012","2013","2017-03-16 21:16:27"
"3213","Ecole Leduc Junior High School","4412 - 48 Street","","Leduc","AB","T9E7J3","(780) 986-2184","Public","53.259343","-113.547472","2017-03-16 21:15:31","0","0","0","0","0","0","0","0","35","-10","-25","24","0","0","24","2012","2013","2017-03-16 21:16:27"
"3214","East Elementary School","4503 - 45 Street","","Leduc","AB","T9E7K4","(780) 986-8421","Public","53.260298397857","-113.53968311216","2017-03-16 21:15:31","0","1","14","1","-1","2","6","-4","0","0","0","0","0","0","19","2012","2013","2017-03-16 21:16:27"
"3215","Linsford Park School","4502 - 51 Street","","Leduc","AB","T9E7J7","(780) 986-8474","Public","53.260636","-113.55481","2017-03-16 21:15:31","0","-6","-2","11","-5","10","-5","10","0","0","0","0","0","0","13","2012","2013","2017-03-16 21:16:27"
"3217","Willow Park School","5212 - 52 Street","","Leduc","AB","T9E6V6","(780) 986-8456","Public","53.267424366127","-113.55833321905","2017-03-16 21:15:31","0","2","23","-5","-1","9","-4","10","0","0","0","0","0","0","34","2012","2013","2017-03-16 21:16:27"
"3219","New Humble Centre School","P.O. Box 780","","Calmar","AB","T0C0V0","(780) 985-3211","Public","53.176015144709","-113.80477569321","2017-03-16 21:15:31","0","-3","-3","3","-3","0","3","-3","0","0","0","0","0","0","-6","2012","2013","2017-03-16 21:16:27"
"3220","New Sarepta Community High School","5150 Centre Street","P.O. Box 10","New Sarepta","AB","T0B3M0","(780) 941-3924","Public","53.268935383028","-113.14669083915","2017-03-16 21:15:31","0","0","0","0","0","0","0","0","-8","0","-2","-11","-4","-6","-31","2012","2013","2017-03-16 21:16:27"
"3221","New Sarepta Elementary School","5051 - 2 Street S.","P.O. Box 160","New Sarepta","AB","T0B3M0","(780) 941-3927","Public","53.269333153637","-113.14544272671","2017-03-16 21:15:31","0","-21","11","5","-3","-1","7","4","0","0","0","0","0","0","2","2012","2013","2017-03-16 21:16:27"
"3222","Thorsby Junior Senior High School","P.O. Box 500","","Thorsby","AB","T0C2P0","(780) 789-3983","Public","53.224958053019","-114.05268242925","2017-03-16 21:15:31","0","0","0","0","0","0","0","0","-5","17","-11","9","-2","0","8","2012","2013","2017-03-16 21:16:27"
"3223","Thorsby Elementary School","5301 - 48 Avenue","P.O. Box 240","Thorsby","AB","T0C2P0","(780) 789-3776","Public","53.224087310087","-114.05260282247","2017-03-16 21:15:31","0","1","-13","-2","13","-13","3","-3","0","0","0","0","0","0","-14","2012","2013","2017-03-16 21:16:27"
"3224","Ecole Beau Meadow School","4322 - 44 Street","","Beaumont","AB","T4X1K3","(780) 929-2175","Public","53.348149","-113.407775","2017-03-16 21:15:31","0","19","3","-17","23","2","0","0","0","0","0","0","0","0","30","2012","2013","2017-03-16 21:16:27"
"3226","Warburg School","P.O. Box 330","","Warburg","AB","T0C2T0","(780) 848-2822","Public","53.2281589","-114.3296078","2017-03-16 21:15:31","0","0","-1","-9","1","10","1","-1","2","3","-10","6","3","-5","0","2012","2013","2017-03-16 21:16:27"
"3228","Warburg Colony School","P.O. Box 270","","Warburg","AB","T0C2T0","(780) 848-2424","Public","53.2281589","-114.3296078","2017-03-16 21:15:31","0","0","4","0","-1","0","0","1","0","1","-1","0","0","0","4","2012","2013","2017-03-16 21:16:27"
"3231","Ecole Secondaire Beaumont Composite High School","5417 - 43 Avenue","","Beaumont","AB","T4X1K1","(780) 929-6282","Public","53.348527","-113.423049","2017-03-16 21:15:31","0","0","0","0","0","0","0","0","0","0","41","50","-19","-7","65","2012","2013","2017-03-16 21:16:27"
"3232","Leduc Estates School","95 Alton Drive","","Leduc","AB","T9E5K4","(780) 986-6750","Public","53.258526914735","-113.58131102712","2017-03-16 21:15:31","0","1","3","11","6","-11","7","-1","0","0","0","0","0","0","16","2012","2013","2017-03-16 21:16:27"
"3234","Ecole Coloniale Estates School","37 Coloniale Way","","Beaumont","AB","T4X1M7","(780) 929-5904","Public","53.362322162464","-113.40861463936","2017-03-16 21:15:31","0","0","0","0","0","6","48","-25","30","-9","0","0","0","0","50","2012","2013","2017-03-16 21:16:27"
"3235","John Maland High School","105 Athabasca Avenue","","Devon","AB","T9G1A4","(780) 987-3709","Public","53.3654828","-113.7193394","2017-03-16 21:15:31","0","0","0","0","0","0","0","0","0","0","0","6","-8","-17","-19","2012","2013","2017-03-16 21:16:27"
"3236","Robina Baker Elementary School","1 Jasper Court S.","","Devon","AB","T9G1A2","(780) 987-3705","Public","53.363663","-113.726789","2017-03-16 21:15:31","0","-7","13","11","-7","1","0","0","0","0","0","0","0","0","11","2012","2013","2017-03-16 21:16:27"
"3237","Riverview Middle School","165 Athabasca Drive","","Devon","AB","T9G1A5","(780) 987-2204","Public","53.3636989","-113.71628","2017-03-16 21:15:31","0","0","0","0","0","0","7","7","11","-10","-2","1","0","0","14","2012","2013","2017-03-16 21:16:27"
"3238","Black Gold Outreach School","104, 4330 Black Gold Drive","","Leduc","AB","T9E3C3","(780) 986-9466","Public","53.2571214","-113.5280449","2017-03-16 21:15:31","0","0","0","0","0","0","0","0","-1","3","0","2","-5","69","68","2012","2013","2017-03-16 21:16:27"
"3270","Notre Dame School","66 South Park Drive","","Leduc","AB","T9E7J1","(780) 986-9300","Separate","53.253269","-113.534832","2017-03-16 21:15:31","0","-8","-6","3","-2","11","14","-4","0","0","0","0","0","0","8","2012","2013","2017-03-16 21:16:27"
"3271","St. Benedict School","75 Alton Drive","","Leduc","AB","T9E7K1","(780) 986-7480","Separate","53.258905243379","-113.58119349091","2017-03-16 21:15:31","0","-13","-1","8","-5","-4","11","0","0","0","0","0","0","0","-4","2012","2013","2017-03-16 21:16:27"
"3272","Christ The King Junior Senior High School","3511 Rollyview Road","","Leduc","AB","T9E6N4","(780) 986-6859","Separate","53.2498716","-113.5203552","2017-03-16 21:15:31","0","0","0","0","0","0","0","0","6","-9","15","-27","-14","-12","-41","2012","2013","2017-03-16 21:16:27"
"3290","Devon Christian School","205 Miquelon Avenue West","","Devon","AB","T9G0L8","(780) 987-4157","Private School","53.35177940246","-113.73496507738","2017-03-16 21:15:31","0","-4","3","-4","10","-5","0","-2","1","-3","4","0","0","0","0","2012","2013","2017-03-16 21:16:27"
"3301","Ardrossan Junior Senior High School","53129 Range Road 222","","Ardrossan","AB","T8E2M8","(780) 922-2228","Public","53.561828830942","-113.14691534153","2017-03-16 21:15:31","0","0","0","0","0","0","0","0","29","18","-31","17","-16","21","38","2012","2013","2017-03-16 21:16:27"
"3303","Ecole Elementaire Ardrossan Elementary School","53131 Range Road 222","","Ardrossan","AB","T8E2M8","(780) 922-2066","Public","53.562810079944","-113.14728042195","2017-03-16 21:15:31","0","-17","44","4","-6","2","-8","15","0","0","0","0","0","0","34","2012","2013","2017-03-16 21:16:27"
"3304","Uncas Elementary School","21313 Township Road 524","","Ardrossan","AB","T8G2G2","(780) 922-4025","Public","53.511159887028","-113.02756022678","2017-03-16 21:15:31","0","7","4","0","0","1","4","-19","0","0","0","0","0","0","-3","2012","2013","2017-03-16 21:16:27"
"3307","Sherwood Park Next Step I Outreach School","1604 Sherwood Drive","","Sherwood Park","AB","T8A0Z2","(780) 464-1899","Public","53.525798549607","-113.30123275855","2017-03-16 21:15:31","0","0","0","0","0","0","0","0","1","-4","-4","31","0","-21","3","2012","2013","2017-03-16 21:16:27"
"3310","Fort Saskatchewan Next Step II Outreach School","9807-108 Street","","Fort Saskatchewan","AB","T8L2J3","(780) 992-0101","Public","53.711978520016","-113.20320035582","2017-03-16 21:15:31","0","0","0","0","0","0","0","0","0","0","0","-4","5","-11","-10","2012","2013","2017-03-16 21:16:27"
"3311","Fort Saskatchewan High School","10002 - 97 Avenue","","Fort Saskatchewan","AB","T8L1R2","(780) 998-3751","Public","53.70684","-113.21421","2017-03-16 21:15:31","0","0","0","0","0","0","0","0","0","0","0","19","-22","-15","-18","2012","2013","2017-03-16 21:16:27"
"3313","Fort Saskatchewan Elementary School","9802 - 101 Street","","Fort Saskatchewan","AB","T8L1V4","(780) 998-7771","Public","53.708558","-113.212607","2017-03-16 21:15:31","0","10","14","6","8","0","8","16","0","0","0","0","0","0","62","2012","2013","2017-03-16 21:16:27"
"3316","Win Ferguson Community School","9529 - 89 Street","","Fort Saskatchewan","AB","T8L1J2","(780) 998-1441","Public","53.695931","-113.236538","2017-03-16 21:15:31","0","-9","27","2","-7","5","0","13","0","0","0","0","0","0","31","2012","2013","2017-03-16 21:16:27"
"3318","Ministik School","21246 Highway 14","","Sherwood Park","AB","T8G1G1","(780) 662-2478","Public","53.3963078","-113.0137768","2017-03-16 21:15:31","0","2","14","-12","6","5","3","2","0","0","0","0","0","0","20","2012","2013","2017-03-16 21:16:27"
"3321","F. R. Haythorne School","300 Colwill Boulevard","","Sherwood Park","AB","T8A5R7","(780) 467-3800","Public","53.529121626714","-113.26550029563","2017-03-16 21:15:31","0","0","0","0","0","0","0","0","-72","6","35","0","0","0","-31","2012","2013","2017-03-16 21:16:27"
"3322","Salisbury Composite High School","20 Festival Way","","Sherwood Park","AB","T8A4Y1","(780) 467-8816","Public","53.5255343156","-113.30077666323","2017-03-16 21:15:31","0","0","0","0","0","0","0","0","0","0","0","31","-55","7","-17","2012","2013","2017-03-16 21:16:27"
"3323","Sherwood Heights Junior High School","241 Fir Street","","Sherwood Park","AB","T8A2G6","(780) 467-5930","Public","53.51883","-113.306514","2017-03-16 21:15:31","0","0","0","0","0","0","0","0","22","32","-12","0","0","0","42","2012","2013","2017-03-16 21:16:27"
"3324","Brentwood School","28 Heron Road","","Sherwood Park","AB","T8A0H2","(780) 467-5591","Public","53.519749207188","-113.28905550926","2017-03-16 21:15:31","0","30","5","-3","-14","11","0","-3","0","0","0","0","0","0","26","2012","2013","2017-03-16 21:16:27"
"3325","Ecole Campbelltown School","271 Conifer Street","","Sherwood Park","AB","T8A1M4","(780) 467-5143","Public","53.519522149572","-113.31321461653","2017-03-16 21:15:31","0","-11","25","-17","13","-4","4","8","0","0","0","0","0","0","18","2012","2013","2017-03-16 21:16:27"
"3326","Pine Street School","133 Pine Street","","Sherwood Park","AB","T8A1H2","(780) 467-2246","Public","53.519959857756","-113.30115689682","2017-03-16 21:15:31","0","31","5","4","16","-23","28","-26","0","0","0","0","0","0","35","2012","2013","2017-03-16 21:16:27"
"3328","Westboro Elementary School","1078 Strathcona Drive","","Sherwood Park","AB","T8A0Z9","(780) 467-7751","Public","53.5256353","-113.3215838","2017-03-16 21:15:31","0","6","18","1","12","-3","5","-3","0","0","0","0","0","0","36","2012","2013","2017-03-16 21:16:27"
"3329","Mills Haven Elementary School","73 Main Boulevard","","Sherwood Park","AB","T8A0R1","(780) 467-5556","Public","53.537385785169","-113.30570846627","2017-03-16 21:15:31","0","3","15","2","3","-3","13","-9","0","0","0","0","0","0","24","2012","2013","2017-03-16 21:16:27"
"3330","Clover Bar Junior High School","50 Main Boulevard","","Sherwood Park","AB","T8A0R2","(780) 467-2295","Public","53.536457083065","-113.30898382936","2017-03-16 21:15:31","0","0","0","0","0","0","0","0","28","-37","-11","0","0","0","-20","2012","2013","2017-03-16 21:16:27"
"3331","Wye School","163, 22560 Wye Road","","Sherwood Park","AB","T8A4T6","(780) 467-7447","Public","53.5150272","-113.2390585","2017-03-16 21:15:31","0","-15","0","7","-5","13","6","7","0","0","0","0","0","0","13","2012","2013","2017-03-16 21:16:27"
"3332","Castle School","55262 Range Road 214","R.R. 2","Fort Saskatchewan","AB","T8L4A3","(780) 998-0784","Public","53.7560421","-113.0792918","2017-03-16 21:15:31","0","0","-1","4","-4","3","-4","3","1","0","0","0","0","0","2","2012","2013","2017-03-16 21:16:27"
"3333","Glen Allan Elementary School","106 Georgian Way","","Sherwood Park","AB","T8A2V9","(780) 467-5519","Public","53.536938","-113.281256","2017-03-16 21:15:31","0","30","-4","-6","0","8","-15","12","0","0","0","0","0","0","25","2012","2013","2017-03-16 21:16:27"
"3334","Wes Hosford School","207 Granada Boulevard","","Sherwood Park","AB","T8A3R5","(780) 464-1711","Public","53.529246158692","-113.28407971164","2017-03-16 21:15:31","0","-4","9","2","6","2","-1","4","0","0","0","0","0","0","18","2012","2013","2017-03-16 21:16:27"
"3335","Fultonvale Elementary Junior High School","52029 Range Road 224","","Sherwood Park","AB","T8C1B5","(780) 922-3058","Public","53.4599319","-113.1922927","2017-03-16 21:15:31","0","14","28","10","15","24","41","8","7","-9","3","0","0","0","141","2012","2013","2017-03-16 21:16:27"
"3336","Woodbridge Farms School","1127 Parker Drive","","Sherwood Park","AB","T8A4E5","(780) 464-3330","Public","53.530027121207","-113.32406365375","2017-03-16 21:15:31","0","-10","17","4","3","12","-24","19","0","0","0","0","0","0","21","2012","2013","2017-03-16 21:16:27"
"3339","Salisbury Composite (Evening)","1604 Sherwood Drive","","Sherwood Park","AB","T8A0Z2","(780) 467-7292","Public","53.525058709972","-113.30046028236","2017-03-16 21:15:31","0","0","0","0","0","0","0","0","0","0","0","0","0","-3","-3","2012","2013","2017-03-16 21:16:27"
"3340","Bev Facey Community High School","99 Colwill Boulevard","","Sherwood Park","AB","T8A4V5","(780) 467-0044","Public","53.524936865726","-113.26903341349","2017-03-16 21:15:31","0","0","0","0","0","0","0","0","0","0","0","-28","-29","-72","-129","2012","2013","2017-03-16 21:16:27"
"3341","James Mowat School","9625 - 82 Street","","Fort Saskatchewan","AB","T8L3T6","(780) 992-1272","Public","53.691739","-113.245536","2017-03-16 21:15:31","0","-2","11","10","-4","6","-10","14","0","0","0","0","0","0","25","2012","2013","2017-03-16 21:16:27"
"3395","Strathcona Christian Academy","1011 Cloverbar Road","","Sherwood Park","AB","T8A4V7","(780) 464-7127","Public","53.512938219745","-113.26903515952","2017-03-16 21:15:31","0","0","0","0","0","0","0","0","3","-1","3","23","-7","5","26","2012","2013","2017-03-16 21:16:27"
"3397","Fort Saskatchewan Christian School","9806 - 101 Street"," ","Fort Saskatchewan","AB","T8L1V4","(780) 998-7044","Public","53.708914952465","-113.21282677183","2017-03-16 21:15:31","0","4","6","12","-5","-4","11","-5","-6","4","-5","0","0","0","12","2012","2013","2017-03-16 21:16:27"
"3404","Lamont High School","General Delivery","","Lamont","AB","T0B2R0","(780) 895-2228","Public","53.759855402297","-112.77776924205","2017-03-16 21:15:31","0","0","0","0","0","0","0","0","-1","5","-6","2","-3","9","6","2012","2013","2017-03-16 21:16:27"
"3405","Lamont Elementary School","P.O. Bag 540","","Lamont","AB","T0B2R0","(780) 895-2269","Public","53.759100628979","-112.77628866267","2017-03-16 21:15:31","0","12","3","5","-18","6","-4","1","0","0","0","0","0","0","5","2012","2013","2017-03-16 21:16:27"
"3406","Mundare School","P.O. Box 319","","Mundare","AB","T0B3H0","(780) 764-3962","Public","53.593493512602","-112.33379727519","2017-03-16 21:15:31","0","-9","-2","2","-6","0","4","-6","-4","4","0","0","0","0","-17","2012","2013","2017-03-16 21:16:27"
"3409","Bruderheim Community School","P.O. Box 190","","Bruderheim","AB","T0B0S0","(780) 796-3936","Public","53.804182880549","-112.92497627459","2017-03-16 21:15:31","0","10","2","-2","4","5","-1","0","0","0","0","0","0","0","18","2012","2013","2017-03-16 21:16:27"
"6001","New Horizons School","1000 Strathcona Drive","","Sherwood Park","AB","T8A3R6","(780) 416-2353","Charter","53.520620272266","-113.32109396508","2017-03-16 21:15:31","0","1","2","0","2","-1","-1","-2","-6","6","3","0","0","0","4","2012","2013","2017-03-16 21:16:27"
"6003","Boyle Street Education Centre","10312 - 105 Street","","Edmonton","AB","T5J1E6","(780) 428-1420","Charter","53.5449202","-113.5015499","2017-03-16 21:15:31","0","0","0","0","0","0","0","0","0","0","0","-38","-23","1","-60","2012","2013","2017-03-16 21:16:27"
"6004","Suzuki Charter School","10720 - 54 Street","","Edmonton","AB","T6A2H9","(780) 468-2598","Charter","53.5548916","-113.4223892","2017-03-16 21:15:31","0","-1","-2","-2","0","-13","3","5","0","0","0","0","0","0","-10","2012","2013","2017-03-16 21:16:27"
"6006","Aurora School","12245 - 131 Street","","Edmonton","AB","T5L1M8","(780) 454-1855","Charter","53.576771855555","-113.54868457805","2017-03-16 21:15:31","0","1","20","0","0","0","20","-1","5","-1","2","0","0","0","46","2012","2013","2017-03-16 21:16:27"
"7050","Vimy Ridge","8205 - 90 Avenue","","Edmonton","AB","T6C1N8","(780) 465-5461","Public","53.5240686","-113.453418","2017-03-16 21:15:31","0","0","0","0","0","0","0","0","-12","8","-6","-28","-4","16","-26","2012","2013","2017-03-16 21:16:27"
"7051","Eastglen School","11430 - 68 Street","","Edmonton","AB","T5B1P1","(780) 479-1991","Public","53.568202341817","-113.44581833002","2017-03-16 21:15:31","0","0","0","0","0","0","0","0","0","0","0","62","-40","67","89","2012","2013","2017-03-16 21:16:27"
"7052","Queen Elizabeth School","9425 - 132 Avenue","","Edmonton","AB","T5E0Y4","(780) 476-8671","Public","53.591438643635","-113.48744363097","2017-03-16 21:15:31","0","0","0","0","0","0","0","0","0","0","0","-11","21","-64","-54","2012","2013","2017-03-16 21:16:27"
"7053","Ross Sheppard School","13546 - 111 Avenue","","Edmonton","AB","T5M2P2","(780) 448-5000","Public","53.560211219799","-113.55741231706","2017-03-16 21:15:31","0","0","0","0","0","0","0","0","0","0","0","43","-11","-65","-33","2012","2013","2017-03-16 21:16:27"
"7054","Strathcona School","10450 - 72 Avenue","","Edmonton","AB","T6E0Z6","(780) 439-3957","Public","53.5089642","-113.5000629","2017-03-16 21:15:31","0","0","0","0","0","0","0","0","0","0","0","-14","20","46","52","2012","2013","2017-03-16 21:16:27"
"7055","Victoria School","10210 - 108 Avenue","","Edmonton","AB","T5H1A8","(780) 426-3010","Public","53.5531999","-113.496374","2017-03-16 21:15:31","0","-2","8","0","-20","22","-5","5","6","-5","-8","2","-52","27","-22","2012","2013","2017-03-16 21:16:27"
"7057","W P Wagner School","6310 Wagner Road","","Edmonton","AB","T6E4N5","(780) 469-1315","Public","53.499817963503","-113.45115694708","2017-03-16 21:15:31","0","0","0","0","0","0","0","0","0","0","0","-5","20","20","35","2012","2013","2017-03-16 21:16:27"
"7058","McNally School","8440 - 105 Avenue","","Edmonton","AB","T6A1B6","(780) 469-0442","Public","53.548539916888","-113.45926904935","2017-03-16 21:15:31","0","0","0","0","0","0","0","0","0","0","0","44","15","-52","7","2012","2013","2017-03-16 21:16:27"
"7059","Harry Ainlay School","4350 - 111 Street","","Edmonton","AB","T6J1E8","(780) 413-2700","Public","53.479567545373","-113.51848304299","2017-03-16 21:15:31","0","0","0","0","0","0","0","0","0","0","0","-42","63","-7","14","2012","2013","2017-03-16 21:16:27"
"7063","M. E. LaZerte School","6804 - 144 Avenue","","Edmonton","AB","T5C3C7","(780) 408-9800","Public","53.605900076724","-113.44430513492","2017-03-16 21:15:31","0","0","0","0","0","0","0","0","0","0","0","19","22","1","42","2012","2013","2017-03-16 21:16:27"
"7066","Old Scona School","10523 - 84 Avenue","","Edmonton","AB","T6E2H5","(780) 433-0627","Public","53.5197042","-113.50195","2017-03-16 21:15:31","0","0","0","0","0","0","0","0","0","0","0","6","4","-16","-6","2012","2013","2017-03-16 21:16:27"
"7071","Jasper Place School","8950 - 163 Street","","Edmonton","AB","T5R2P2","(780) 408-9000","Public","53.525198661179","-113.60458008679","2017-03-16 21:15:31","0","0","0","0","0","0","0","0","0","0","0","-4","38","-49","-15","2012","2013","2017-03-16 21:16:27"
"7075","J Percy Page School","2707 Millwoods Road N.W.","","Edmonton","AB","T6K4A6","(780) 462-3322","Public","53.456447926627","-113.4469699791","2017-03-16 21:15:31","0","0","0","0","0","0","0","0","0","0","0","38","-40","0","-2","2012","2013","2017-03-16 21:16:27"
"7090","Metro Continuing Education","7835 76 Avenue NW","","Edmonton","AB","T6C2N1","(780) 428-1111","Public","53.5114423","-113.4484099","2017-03-16 21:15:31","0","0","0","0","0","0","0","0","0","0","0","-193","-7","190","-10","2012","2013","2017-03-16 21:16:27"
"7100","Abbott School","12045 - 34 Street","","Edmonton","AB","T5W1Z5","(780) 477-7310","Public","53.574408687272","-113.39286335079","2017-03-16 21:15:31","0","14","-18","12","-11","-6","-6","8","0","0","0","0","0","0","-7","2012","2013","2017-03-16 21:16:27"
"7104","Athlone School","12940 - 129 Street","","Edmonton","AB","T5L1J3","(780) 455-5823","Public","53.588525579329","-113.54476779497","2017-03-16 21:15:31","0","-3","2","-8","-1","3","-2","0","0","0","0","0","0","0","-9","2012","2013","2017-03-16 21:16:27"
"7106","Beacon Heights School","4610 - 121 Avenue","","Edmonton","AB","T5W1M8","(780) 479-4038","Public","53.575617185251","-113.41391994512","2017-03-16 21:15:31","0","8","0","-3","6","-7","-2","1","0","0","0","0","0","0","3","2012","2013","2017-03-16 21:16:27"
"7107","Belgravia School","11605 - 74 Avenue","","Edmonton","AB","T6G0G1","(780) 435-5560","Public","53.510040449993","-113.53141942195","2017-03-16 21:15:31","0","0","-10","6","-9","0","6","6","0","0","0","0","0","0","-1","2012","2013","2017-03-16 21:16:27"
"7109","Belvedere School","13359 - 62 Street","","Edmonton","AB","T5A0V5","(780) 476-2022","Public","53.595045270773","-113.43611295107","2017-03-16 21:15:31","0","4","9","5","-5","11","0","-6","0","0","0","0","0","0","18","2012","2013","2017-03-16 21:16:27"
"7113","Calder School","12950 - 118 Street","","Edmonton","AB","T5E5L2","(780) 454-4313","Public","53.588889216561","-113.52558413492","2017-03-16 21:15:31","0","19","5","-11","3","-5","-2","-5","0","0","0","0","0","0","4","2012","2013","2017-03-16 21:16:27"
"7115","Coronation School","10925 - 139 Street","","Edmonton","AB","T5M1P8","(780) 455-2008","Public","53.555080626538","-113.56079613625","2017-03-16 21:15:31","0","-1","18","7","-7","-5","-4","18","0","0","0","0","0","0","26","2012","2013","2017-03-16 21:16:27"
"7118","Delton School","12126 - 89 Street","","Edmonton","AB","T5B3W4","(780) 477-8742","Public","53.5759332","-113.4784126","2017-03-16 21:15:31","0","-6","-2","-7","4","-5","12","-11","0","0","0","0","-1","0","-16","2012","2013","2017-03-16 21:16:27"
"7121","Dovercourt School","13910 - 122 Avenue","","Edmonton","AB","T5L2W3","(780) 455-6171","Public","53.574638845881","-113.5625174676","2017-03-16 21:15:31","0","-3","14","5","-8","17","-10","6","0","0","0","0","0","0","21","2012","2013","2017-03-16 21:16:27"
"7123","Forest Heights School","10304 - 81 Street","","Edmonton","AB","T6A3X4","(780) 466-0312","Public","53.544751","-113.453247","2017-03-16 21:15:31","0","7","-2","-2","2","-17","9","-5","0","0","0","0","0","0","-8","2012","2013","2017-03-16 21:16:27"
"7126","Glenora School","13520 - 102 Avenue","","Edmonton","AB","T5N0N7","(780) 452-4740","Public","53.5438339","-113.555479","2017-03-16 21:15:31","0","-11","16","-1","-5","-3","-2","-6","0","0","0","0","0","0","-12","2012","2013","2017-03-16 21:16:27"
"7127","Gold Bar School","10524 - 46 Street","","Edmonton","AB","T6A1Y3","(780) 466-4116","Public","53.5494989","-113.41337","2017-03-16 21:15:31","0","3","14","0","4","1","-11","2","0","0","0","0","0","0","13","2012","2013","2017-03-16 21:16:27"
"7128","Grandview Heights School","6225 - 127 Street","","Edmonton","AB","T6H3W8","(780) 434-1502","Public","53.499504","-113.547048","2017-03-16 21:15:31","0","0","3","5","-3","5","0","-2","0","-2","8","0","0","0","14","2012","2013","2017-03-16 21:16:27"
"7129","Grovenor School","10345 - 144 Street","","Edmonton","AB","T5N2V3","(780) 455-0832","Public","53.545160249756","-113.56840498413","2017-03-16 21:15:31","0","-7","-2","7","-4","5","2","6","0","0","0","0","0","0","7","2012","2013","2017-03-16 21:16:27"
"7132","Hazeldean School","6715 - 97 Street","","Edmonton","AB","T6E3J9","(780) 433-7583","Public","53.504194","-113.47867","2017-03-16 21:15:31","0","-7","5","-2","-4","-3","-2","-12","0","0","0","0","0","0","-25","2012","2013","2017-03-16 21:16:27"
"7136","Inglewood School","11515 - 127 Street","","Edmonton","AB","T5M0V4","(780) 455-4673","Public","53.566142686682","-113.54044094247","2017-03-16 21:15:31","0","10","2","8","7","2","1","-7","0","0","0","0","0","0","23","2012","2013","2017-03-16 21:16:27"
"7137","Kensington School","13410 - 119 Street","","Edmonton","AB","T5E5N1","(780) 455-1836","Public","53.5953134","-113.5275504","2017-03-16 21:15:31","0","-7","5","2","10","-10","0","-9","0","0","0","0","0","0","-9","2012","2013","2017-03-16 21:16:27"
"7138","Kildare School","7525 - 144 Avenue","","Edmonton","AB","T5C2R8","(780) 476-5675","Public","53.606404382732","-113.45700364816","2017-03-16 21:15:31","0","-6","0","-4","6","-14","-3","2","0","0","0","0","0","0","-19","2012","2013","2017-03-16 21:16:27"
"7141","Lauderdale School","10610 - 129 Avenue","","Edmonton","AB","T5E4V6","(780) 475-8737","Public","53.588305","-113.502342","2017-03-16 21:15:31","0","-3","-3","9","-2","-6","-11","6","0","0","0","0","0","0","-10","2012","2013","2017-03-16 21:16:27"
"7143","McArthur School","13535 - 134 Street","","Edmonton","AB","T5L1W3","(780) 455-2728","Public","53.597680119988","-113.55120980622","2017-03-16 21:15:31","0","2","0","-7","7","-8","11","-1","0","0","0","0","0","0","4","2012","2013","2017-03-16 21:16:27"
"7146","Brookside School","5504 - 143 Street","","Edmonton","AB","T6H4E5","(780) 434-0464","Public","53.4922593","-113.5681026","2017-03-16 21:15:31","0","-3","12","6","4","-4","-1","14","0","0","0","0","0","0","28","2012","2013","2017-03-16 21:16:27"
"7149","Mee-Yah-Noh School","9228 - 128 A Ave","","Edmonton","AB","T5E0J8","(780) 475-1929","Public","53.587396309876","-113.48421815847","2017-03-16 21:15:31","0","-1","-7","11","1","7","-4","3","0","0","0","0","0","0","10","2012","2013","2017-03-16 21:16:27"
"7150","Mill Creek School","9735 - 80 Avenue","","Edmonton","AB","T6E1S8","(780) 433-5746","Public","53.5154123","-113.4812863","2017-03-16 21:15:31","0","-8","27","-17","11","-8","15","-1","0","0","0","0","0","0","19","2012","2013","2017-03-16 21:16:27"
"7151","Montrose School","11931 - 62 Street","","Edmonton","AB","T5W4C7","(780) 471-2358","Public","53.572699349708","-113.43608430688","2017-03-16 21:15:31","0","7","-3","0","-5","-5","-4","7","0","0","0","0","0","0","-3","2012","2013","2017-03-16 21:16:27"
"7153","Mount Royal School","11303 - 55 Street","","Edmonton","AB","T5W3P6","(780) 477-8202","Public","53.568869858884","-113.4253704762","2017-03-16 21:15:31","0","15","-4","14","0","11","5","11","0","0","0","0","0","0","52","2012","2013","2017-03-16 21:16:27"
"7156","Norwood School","9520 - 111 Avenue","","Edmonton","AB","T5G0A6","(780) 477-1002","Public","53.560499","-113.487872","2017-03-16 21:15:31","0","-10","13","5","6","1","14","2","0","0","0","0","0","0","31","2012","2013","2017-03-16 21:16:27"
"7161","Prince Charles School","12325 - 127 Street","","Edmonton","AB","T5L0Z9","(780) 455-5533","Public","53.578600439095","-113.54025039154","2017-03-16 21:15:31","0","-7","-1","-1","10","4","4","1","0","0","0","0","0","0","10","2012","2013","2017-03-16 21:16:27"
"7164","Queen Alexandra School","7730 - 106 Street","","Edmonton","AB","T6E4W3","(780) 439-2516","Public","53.513781327194","-113.50456259259","2017-03-16 21:15:31","0","-5","2","2","-1","2","5","1","0","0","0","0","0","0","6","2012","2013","2017-03-16 21:16:27"
"7168","Riverdale School","8901 - 101 Avenue","","Edmonton","AB","T5H0B1","(780) 425-7600","Public","53.543273","-113.468262","2017-03-16 21:15:31","0","16","-13","11","-1","-1","0","1","0","0","0","0","0","0","13","2012","2013","2017-03-16 21:16:27"
"7170","Rutherford School","8620 - 91 Street","","Edmonton","AB","T6C3N2","(780) 466-2891","Public","53.5222906","-113.4687339","2017-03-16 21:15:31","0","12","2","1","7","-1","6","-1","0","0","0","0","0","0","26","2012","2013","2017-03-16 21:16:27"
"7171","Scott Robertson School","13515 - 107 Street","","Edmonton","AB","T5E4W3","(780) 475-3565","Public","53.5967199","-113.5043156","2017-03-16 21:15:31","0","28","-8","-1","9","-12","2","-7","0","0","0","0","0","0","11","2012","2013","2017-03-16 21:16:27"
"7176","Patricia Heights School","16216 - 78 Avenue","","Edmonton","AB","T5R3E6","(780) 487-0550","Public","53.5112","-113.604341","2017-03-16 21:15:31","0","-8","8","7","-4","7","7","-16","0","0","0","0","0","0","1","2012","2013","2017-03-16 21:16:27"
"7177","Virginia Park School","7324 - 109 Avenue","","Edmonton","AB","T5B0A1","(780) 477-8152","Public","53.5603729","-113.4484076","2017-03-16 21:15:31","0","-3","4","-1","6","-4","1","3","0","0","0","0","0","0","6","2012","2013","2017-03-16 21:16:27"
"7178","Greenfield School","3735 - 114 Street","","Edmonton","AB","T6J2G6","(780) 434-8581","Public","53.472387757235","-113.52683092296","2017-03-16 21:15:31","0","-1","16","-11","7","0","-7","-7","0","0","0","0","0","0","-3","2012","2013","2017-03-16 21:16:27"
"7180","Lansdowne School","12323 - 51 Avenue","","Edmonton","AB","T6H0M6","(780) 434-3160","Public","53.487770086812","-113.54526974736","2017-03-16 21:15:31","0","13","-1","17","-4","9","4","-2","0","0","0","0","0","0","36","2012","2013","2017-03-16 21:16:27"
"7182","Windsor Park School","8720 - 118 Street","","Edmonton","AB","T6G1T5","(780) 433-3924","Public","53.524097","-113.53496","2017-03-16 21:15:31","0","-3","2","-2","3","3","-1","2","0","0","0","0","0","0","4","2012","2013","2017-03-16 21:16:27"
"7184","Glengarry School","9211 - 135 Avenue","","Edmonton","AB","T5E1N7","(780) 476-5373","Public","53.596304077027","-113.48413260713","2017-03-16 21:15:31","0","-9","1","7","-24","2","-12","22","0","0","0","0","0","0","-13","2012","2013","2017-03-16 21:16:27"
"7185","Lendrum School","11330 - 54 Avenue","","Edmonton","AB","T6H0V7","(780) 434-3588","Public","53.491103567418","-113.52231625264","2017-03-16 21:15:31","0","6","6","7","10","-3","14","12","0","0","0","0","0","0","52","2012","2013","2017-03-16 21:16:27"
"7186","Malmo School","4716 - 115 Street","","Edmonton","AB","T6H3N8","(780) 434-1362","Public","53.485013676199","-113.52936414603","2017-03-16 21:15:31","0","1","-5","0","-3","-1","5","12","0","0","0","0","0","0","9","2012","2013","2017-03-16 21:16:27"
"7187","Princeton School","7720 - 130 Avenue","","Edmonton","AB","T5C1Y2","(780) 476-2344","Public","53.58964523411","-113.45948418916","2017-03-16 21:15:31","0","0","1","-3","7","5","-10","-5","0","0","0","0","0","0","-5","2012","2013","2017-03-16 21:16:27"
"7188","J A Fife School","15004 - 76 Street","","Edmonton","AB","T5C1C2","(780) 476-0775","Public","53.611691094983","-113.46081174471","2017-03-16 21:15:31","0","5","14","6","6","-1","14","-14","0","0","0","0","0","0","30","2012","2013","2017-03-16 21:16:27"
"7189","Waverley School","6825 - 89 Avenue","","Edmonton","AB","T6B0N3","(780) 469-6682","Public","53.5239572","-113.4333034","2017-03-16 21:15:31","0","32","10","0","-5","9","1","-2","0","0","0","0","0","0","45","2012","2013","2017-03-16 21:16:27"
"7191","Northmount School","14020 - 88A Street","","Edmonton","AB","T5E3J4","(780) 475-5162","Public","53.603423537354","-113.47678777249","2017-03-16 21:15:31","0","7","-21","19","6","26","0","9","0","0","0","0","0","0","46","2012","2013","2017-03-16 21:16:27"
"7192","Afton School","16604 - 91 Avenue","","Edmonton","AB","T5R5A4","(780) 484-3263","Public","53.526570423094","-113.60987006113","2017-03-16 21:15:31","0","10","4","3","-6","-12","-3","-6","0","0","0","0","0","0","-10","2012","2013","2017-03-16 21:16:27"
"7193","Clara Tyner School","9420 Ottewell Road","","Edmonton","AB","T6B2E2","(780) 469-5339","Public","53.5311018","-113.4354203","2017-03-16 21:15:31","0","3","-6","-1","-1","-2","-1","-3","0","0","0","0","0","0","-11","2012","2013","2017-03-16 21:16:27"
"7194","Delwood School","7315 Delwood Road","","Edmonton","AB","T5C3A9","(780) 476-3969","Public","53.5964366","-113.4553387","2017-03-16 21:15:31","0","-9","-27","1","-20","-15","-3","-15","0","0","0","0","0","0","-88","2012","2013","2017-03-16 21:16:27"
"7195","McKee School","10725 - 51 Avenue","","Edmonton","AB","T6H0L3","(780) 435-7140","Public","53.487674622503","-113.50910438889","2017-03-16 21:15:31","0","1","7","-8","-9","15","11","-13","0","0","0","0","0","0","4","2012","2013","2017-03-16 21:16:27"
"7196","Rundle School","11005 - 34 Street","","Edmonton","AB","T5W1Y7","(780) 471-6100","Public","53.563395027928","-113.39301118916","2017-03-16 21:15:31","0","1","-1","-5","0","-7","-12","10","0","0","0","0","0","0","-14","2012","2013","2017-03-16 21:16:27"
"7197","Westbrook School","11915 - 40 Avenue","","Edmonton","AB","T6J0S1","(780) 438-4200","Public","53.475823016036","-113.54000006131","2017-03-16 21:15:31","0","-18","9","9","-2","7","-10","0","0","0","0","0","0","0","-5","2012","2013","2017-03-16 21:16:27"
"7198","York School","13915 - 61 Street","","Edmonton","AB","T5A1P3","(780) 476-6336","Public","53.6017335","-113.4351495","2017-03-16 21:15:31","0","-12","12","-7","20","-13","-1","8","0","0","0","0","0","0","7","2012","2013","2017-03-16 21:16:27"
"7200","McLeod School","14807 - 59 Street","","Edmonton","AB","T5A1Y3","(780) 478-2927","Public","53.6109183","-113.4315132","2017-03-16 21:15:31","0","-22","20","-5","1","9","0","3","0","0","0","0","0","0","6","2012","2013","2017-03-16 21:16:27"
"7201","Richard Secord School","4025 - 117 Street","","Edmonton","AB","T6J1T4","(780) 436-9839","Public","53.476926184768","-113.5343814332","2017-03-16 21:15:31","0","-11","5","-4","17","-10","4","4","0","0","0","0","0","0","5","2012","2013","2017-03-16 21:16:27"
"7204","Elmwood School","16325 - 83 Avenue","","Edmonton","AB","T5R3V8","(780) 489-6749","Public","53.5163728","-113.6049007","2017-03-16 21:15:31","0","21","3","-2","-4","6","1","-3","0","0","0","0","0","0","22","2012","2013","2017-03-16 21:16:27"
"7205","Glendale School","9812 - 161 Street","","Edmonton","AB","T5P3H4","(780) 489-4300","Public","53.536795","-113.599592","2017-03-16 21:15:31","0","5","1","3","2","-2","-1","-4","0","0","0","0","0","0","4","2012","2013","2017-03-16 21:16:27"
"7207","James Gibbons School","8945 - 153 Street","","Edmonton","AB","T5R1P1","(780) 489-8020","Public","53.5226342","-113.5850925","2017-03-16 21:15:31","0","2","17","-2","4","2","2","0","0","0","0","0","0","0","25","2012","2013","2017-03-16 21:16:27"
"7208","Lynnwood School","15451 - 84 Avenue","","Edmonton","AB","T5R3Y1","(780) 489-4500","Public","53.5168191","-113.5876199","2017-03-16 21:15:31","0","-12","-3","3","-2","-1","2","6","0","0","0","0","0","0","-7","2012","2013","2017-03-16 21:16:27"
"7209","Mayfield School","10950 - 159 Street","","Edmonton","AB","T5P3C1","(780) 489-5100","Public","53.5547983","-113.594431","2017-03-16 21:15:31","0","41","12","-1","-2","-1","-2","-4","0","0","0","0","0","0","43","2012","2013","2017-03-16 21:16:27"
"7210","Meadowlark School","9150 - 160 Street","","Edmonton","AB","T5R2J2","(780) 489-5200","Public","53.526357428817","-113.59516664285","2017-03-16 21:15:31","0","-1","-12","22","-9","5","-4","19","0","0","0","0","0","0","20","2012","2013","2017-03-16 21:16:27"
"7211","Rio Terrace Elementary School","7608 - 154 Street","","Edmonton","AB","T5R1R7","(780) 481-6866","Public","53.5086349","-113.586258","2017-03-16 21:15:31","0","5","8","1","4","3","6","2","0","0","0","0","0","0","29","2012","2013","2017-03-16 21:16:27"
"7212","Sherwood School","9550 - 152 Street","","Edmonton","AB","T5P0B9","(780) 489-2600","Public","53.532555","-113.584157","2017-03-16 21:15:31","0","-9","15","-4","7","1","-1","0","0","0","0","0","0","0","9","2012","2013","2017-03-16 21:16:27"
"7213","Youngstown School","10330 - 163 Street","","Edmonton","AB","T5P3N5","(780) 489-4600","Public","53.545693749754","-113.60307794575","2017-03-16 21:15:31","0","-6","14","-4","-6","8","11","3","0","0","0","0","0","0","20","2012","2013","2017-03-16 21:16:27"
"7214","John Barnett School","14840 - 72 Street","","Edmonton","AB","T5C3E5","(780) 478-1351","Public","53.609997278196","-113.44993598148","2017-03-16 21:15:31","0","-2","-5","0","-1","-3","9","2","0","0","0","0","0","0","0","2012","2013","2017-03-16 21:16:27"
"7215","Evansdale School","9303 - 150 Avenue","","Edmonton","AB","T5E2N7","(780) 476-3331","Public","53.610356033158","-113.48432532275","2017-03-16 21:15:31","0","3","7","-17","14","7","-8","-10","0","0","0","0","0","0","-4","2012","2013","2017-03-16 21:16:27"
"7216","Thorncliffe School","8215 - 175 Street","","Edmonton","AB","T5T0G9","(780) 487-2061","Public","53.515930587758","-113.62281751192","2017-03-16 21:15:31","0","1","-8","0","-11","6","0","12","0","0","0","0","0","0","0","2012","2013","2017-03-16 21:16:27"
"7218","Duggan School","10616 - 36A Avenue","","Edmonton","AB","T6J0C9","(780) 434-0319","Public","53.471625193752","-113.5053901619","2017-03-16 21:15:31","0","13","6","4","6","9","-5","22","0","0","0","0","0","0","55","2012","2013","2017-03-16 21:16:27"
"7220","Grace Martin School","8210 - 36 Avenue","","Edmonton","AB","T6K0C7","(780) 462-7121","Public","53.4693328","-113.4569651","2017-03-16 21:15:31","0","3","-8","0","-5","6","-14","17","0","0","0","0","0","0","-1","2012","2013","2017-03-16 21:16:27"
"7223","Malcolm Tweddle School","2340 Millbourne Road W.","","Edmonton","AB","T6K1Y9","(780) 462-3270","Public","53.477316029662","-113.45769588651","2017-03-16 21:15:31","0","3","4","-4","-6","-2","2","7","0","0","0","0","0","0","4","2012","2013","2017-03-16 21:16:27"
"7224","Lee Ridge School","440 Millbourne Road E.","","Edmonton","AB","T6K1Y8","(780) 462-3230","Public","53.471143","-113.4450009","2017-03-16 21:15:31","0","6","-2","8","1","11","3","-2","0","0","0","0","0","0","25","2012","2013","2017-03-16 21:16:27"
"7225","Caernarvon School","14820 - 118 Street","","Edmonton","AB","T5X1T4","(780) 456-7020","Public","53.610367565701","-113.52690571164","2017-03-16 21:15:31","0","9","5","-2","-5","7","11","-2","0","0","0","0","0","0","23","2012","2013","2017-03-16 21:16:27"
"7226","Brander Gardens School","14865 - 56 Avenue","","Edmonton","AB","T6H5G2","(780) 436-6740","Public","53.493484","-113.577079","2017-03-16 21:15:31","0","13","28","11","20","0","32","20","0","0","0","0","0","0","124","2012","2013","2017-03-16 21:16:27"
"7228","Belmont School","3310 - 132A Avenue","","Edmonton","AB","T5A3T1","(780) 476-9590","Public","53.593495965378","-113.39283957197","2017-03-16 21:15:31","0","9","-2","-3","1","11","3","-7","0","0","0","0","0","0","12","2012","2013","2017-03-16 21:16:27"
"7229","Overlanders School","1150 Hermitage Road","","Edmonton","AB","T5A4L4","(780) 476-3361","Public","53.581442176791","-113.3889876799","2017-03-16 21:15:31","0","-5","4","7","-2","-2","15","-12","0","0","0","0","0","0","5","2012","2013","2017-03-16 21:16:27"
"7232","Rideau Park School","10605 - 42 Avenue","","Edmonton","AB","T6J3Z9","(780) 437-0010","Public","53.478475508944","-113.50526771654","2017-03-16 21:15:31","0","-1","-1","1","5","-8","6","-9","0","0","0","0","0","0","-7","2012","2013","2017-03-16 21:16:27"
"7233","Ekota School","1395 Knottwood Road E.","","Edmonton","AB","T6K2P5","(780) 462-5112","Public","53.449224094015","-113.44090508784","2017-03-16 21:15:31","0","-9","1","2","-3","7","6","-4","0","0","0","0","0","0","0","2012","2013","2017-03-16 21:16:27"
"7234","Aldergrove School","8525 - 182 Street","","Edmonton","AB","T5T1X1","(780) 487-5182","Public","53.518394918298","-113.63610579895","2017-03-16 21:15:31","0","-6","10","7","-6","-7","2","9","0","0","0","0","0","0","9","2012","2013","2017-03-16 21:16:27"
"7235","Satoo School","8515 - 17 Avenue","","Edmonton","AB","T6K2C7","(780) 462-5125","Public","53.446786322908","-113.46037771562","2017-03-16 21:15:31","0","4","6","-2","-9","13","-4","-2","0","0","0","0","0","0","6","2012","2013","2017-03-16 21:16:27"
"7236","Belmead School","9011 - 182 Street","","Edmonton","AB","T5T2Y9","(780) 481-3314","Public","53.525735","-113.6384614","2017-03-16 21:15:31","0","-11","11","-11","-1","2","-12","1","0","0","0","0","0","0","-21","2012","2013","2017-03-16 21:16:27"
"7237","Callingwood Elementary School","17335 - 76 Avenue","","Edmonton","AB","T5T2B1","(780) 487-0727","Public","53.5088666","-113.622877","2017-03-16 21:15:31","0","-9","0","5","2","0","-13","-2","0","0","0","0","0","0","-17","2012","2013","2017-03-16 21:16:27"
"7238","Sifton School","4305 - 134 Avenue","","Edmonton","AB","T5A3R5","(780) 476-7953","Public","53.594321","-113.408132","2017-03-16 21:15:31","0","5","9","9","4","2","8","-13","0","0","0","0","0","0","24","2012","2013","2017-03-16 21:16:27"
"7239","Kameyosek School","250 Lakewood Road E.","","Edmonton","AB","T6K3L4","(780) 462-8724","Public","53.460752064582","-113.44155955107","2017-03-16 21:15:31","0","-25","11","26","0","-3","5","-5","0","0","0","0","0","0","9","2012","2013","2017-03-16 21:16:27"
"7240","Homesteader School","4455 - 128 Avenue","","Edmonton","AB","T5A3M9","(780) 478-1139","Public","53.587579","-113.411279","2017-03-16 21:15:31","0","-4","8","8","0","-8","5","-5","0","0","0","0","0","0","4","2012","2013","2017-03-16 21:16:27"
"7241","Steinhauer School","10717 - 32A Avenue","","Edmonton","AB","T6J4A6","(780) 437-1080","Public","53.464534710036","-113.50620349074","2017-03-16 21:15:31","0","7","7","-3","0","-7","11","-17","0","0","0","0","0","0","-2","2012","2013","2017-03-16 21:16:27"
"7242","Lorelei School","16230 - 103 Street","","Edmonton","AB","T5X3A9","(780) 456-4488","Public","53.6239077","-113.5015672","2017-03-16 21:15:31","0","20","0","-1","-3","3","2","17","0","0","0","0","0","0","38","2012","2013","2017-03-16 21:16:27"
"7243","Sweet Grass School","11351 - 31 Avenue","","Edmonton","AB","T6J4T6","(780) 437-0366","Public","53.463373308609","-113.52790908731","2017-03-16 21:15:31","0","-8","25","-6","-3","18","18","18","0","0","0","0","0","0","62","2012","2013","2017-03-16 21:16:27"
"7246","Dunluce School","11735 - 162 Avenue","","Edmonton","AB","T5X4M6","(780) 456-9080","Public","53.622347612927","-113.52737098546","2017-03-16 21:15:31","0","9","10","3","5","3","7","-6","0","0","0","0","0","0","31","2012","2013","2017-03-16 21:16:27"
"7247","Baturyn School","10603 - 172 Avenue","","Edmonton","AB","T5X4X4","(780) 456-6727","Public","53.6329904","-113.5060523","2017-03-16 21:15:31","0","-5","29","4","-9","4","2","11","0","0","0","0","0","0","36","2012","2013","2017-03-16 21:16:27"
"7248","Ormsby School","6323 - 184 Street","","Edmonton","AB","T5T3K1","(780) 481-4646","Public","53.498185528125","-113.63906500266","2017-03-16 21:15:31","0","14","-8","4","-6","21","-5","3","0","0","0","0","0","0","23","2012","2013","2017-03-16 21:16:27"
"7249","Meyonohk School","1850 Lakewood Road S.","","Edmonton","AB","T6K3Y5","(780) 463-7627","Public","53.455184209209","-113.45420930423","2017-03-16 21:15:31","0","10","-1","15","-11","6","13","4","0","0","0","0","0","0","36","2012","2013","2017-03-16 21:16:27"
"7250","Greenview School","5904 - 38 Avenue","","Edmonton","AB","T6L3P5","(780) 462-0660","Public","53.473866940967","-113.42787642328","2017-03-16 21:15:31","0","-7","10","19","-6","-14","2","0","0","0","0","0","0","0","4","2012","2013","2017-03-16 21:16:27"
"7251","Sakaw School","5730 - 11A Avenue","","Edmonton","AB","T6L3A9","(780) 463-1854","Public","53.440978854031","-113.42788528836","2017-03-16 21:15:31","0","-7","7","-9","0","-8","-6","3","0","0","0","0","0","0","-20","2012","2013","2017-03-16 21:16:27"
"7253","Bannerman School","14112 - 23 Street","","Edmonton","AB","T5Y2B9","(780) 478-7706","Public","53.605108905801","-113.37869123544","2017-03-16 21:15:31","0","0","-5","13","-1","-3","1","7","3","-9","2","0","0","0","8","2012","2013","2017-03-16 21:16:27"
"7254","Keheewin School","1910 - 105 Street","","Edmonton","AB","T6J5J8","(780) 438-3874","Public","53.449100170127","-113.50115445502","2017-03-16 21:15:31","0","8","21","0","15","1","-4","18","0","0","0","0","0","0","59","2012","2013","2017-03-16 21:16:27"
"7255","Hillview School","355 Woodvale Road E.","","Edmonton","AB","T6L5C3","(780) 463-8108","Public","53.467725659492","-113.42825718256","2017-03-16 21:15:31","0","0","2","-19","9","-9","-8","10","0","0","0","0","0","0","-15","2012","2013","2017-03-16 21:16:27"
"7257","Meyokumin School","5703 - 19A Avenue","","Edmonton","AB","T6L4J8","(780) 463-8409","Public","53.450371983304","-113.42801115397","2017-03-16 21:15:31","0","12","6","17","6","9","-12","-4","0","0","0","0","0","0","34","2012","2013","2017-03-16 21:16:27"
"7258","Pollard Meadows School","1715 - 48 Street","","Edmonton","AB","T6L3J6","(780) 463-8680","Public","53.4486836","-113.4132453","2017-03-16 21:15:31","0","3","-7","-7","6","-6","10","6","0","0","0","0","0","0","5","2012","2013","2017-03-16 21:16:27"
"7259","Menisa School","933 Knottwood Road S.","","Edmonton","AB","T6K3Y9","(780) 463-8474","Public","53.4427797","-113.4486988","2017-03-16 21:15:31","0","-4","11","5","6","-11","28","-10","0","0","0","0","0","0","25","2012","2013","2017-03-16 21:16:27"
"7260","Centennial School","17420 - 57 Avenue","","Edmonton","AB","T6M1K4","(780) 481-5590","Public","53.493679917008","-113.62486615344","2017-03-16 21:15:31","0","0","7","-4","-2","5","-8","10","0","0","0","0","0","0","8","2012","2013","2017-03-16 21:16:27"
"7262","Kirkness School","610 Kirkness Road","","Edmonton","AB","T5Y2K4","(780) 473-5924","Public","53.6110309","-113.386996","2017-03-16 21:15:31","0","13","-7","16","-8","-4","9","8","0","0","0","0","0","0","27","2012","2013","2017-03-16 21:16:27"
"7263","Crawford Plains School","4210 - 12 Avenue","","Edmonton","AB","T6L5V6","(780) 463-7211","Public","53.441047066414","-113.40558201587","2017-03-16 21:15:31","0","13","7","-2","19","-19","-1","18","0","0","0","0","0","0","35","2012","2013","2017-03-16 21:16:27"
"7264","Daly Grove School","1888 - 37 Street","","Edmonton","AB","T6L2R2","(780) 450-1532","Public","53.449750971879","-113.40026101006","2017-03-16 21:15:31","0","0","16","1","12","6","5","14","0","0","0","0","0","0","54","2012","2013","2017-03-16 21:16:27"
"7265","Weinlos School","2911 - 48 Street","","Edmonton","AB","T6L5T7","(780) 462-5261","Public","53.460113190647","-113.41623888759","2017-03-16 21:15:31","0","-7","14","-7","6","5","-12","6","0","0","0","0","0","0","5","2012","2013","2017-03-16 21:16:27"
"7267","LaPerle School","18715 - 97A Avenue","","Edmonton","AB","T5T4C1","(780) 483-1864","Public","53.5333428","-113.6457995","2017-03-16 21:15:31","0","0","14","-2","-10","-5","8","-13","0","0","0","0","0","0","-8","2012","2013","2017-03-16 21:16:27"
"7269","Lymburn School","18710 - 72 Avenue","","Edmonton","AB","T5T4E9","(780) 487-1777","Public","53.505751474528","-113.64655148941","2017-03-16 21:15:31","0","-6","-2","6","-9","-1","5","-1","0","0","0","0","0","0","-8","2012","2013","2017-03-16 21:16:27"
"7270","Tipaskan School","1200 Lakewood Road S.","","Edmonton","AB","T6K4A3","(780) 462-5031","Public","53.4629644","-113.4582822","2017-03-16 21:15:31","0","0","-1","7","-11","11","-11","11","0","0","0","0","0","0","6","2012","2013","2017-03-16 21:16:27"
"7273","Fraser School","14904 - 21 Street","","Edmonton","AB","T5Y2L6","(780) 472-0131","Public","53.611715782391","-113.37272830423","2017-03-16 21:15:31","0","13","4","1","-10","7","9","-3","0","0","0","0","0","0","21","2012","2013","2017-03-16 21:16:27"
"7274","Minchau School","3615 Millwoods Road E.","","Edmonton","AB","T6L5X2","(780) 461-0616","Public","53.4677401","-113.4084842","2017-03-16 21:15:31","0","-12","3","-3","1","1","-8","-8","0","0","0","0","0","0","-26","2012","2013","2017-03-16 21:16:27"
"7275","Julia Kiniski School","4304 - 41 Avenue","","Edmonton","AB","T6L5Y6","(780) 462-4622","Public","53.477446553525","-113.40600589682","2017-03-16 21:15:31","0","12","-12","14","-4","-10","2","-9","0","0","0","0","0","0","-7","2012","2013","2017-03-16 21:16:27"
"7276","Bisset School","3020 - 37 Street","","Edmonton","AB","T6L5X1","(780) 450-6536","Public","53.46074277533","-113.39884625397","2017-03-16 21:15:31","0","2","-2","15","5","12","0","15","0","0","0","0","0","0","47","2012","2013","2017-03-16 21:16:27"
"7277","Lago Lindo School","17303 - 95 Street","","Edmonton","AB","T5Z2Z1","(780) 456-6980","Public","53.635769026224","-113.48719849312","2017-03-16 21:15:31","0","12","0","0","-4","-2","5","11","0","0","0","0","0","0","22","2012","2013","2017-03-16 21:16:27"
"7278","Earl Buxton School","250 Rhatigan Road E.","","Edmonton","AB","T6R2H7","(780) 435-1577","Public","53.473949704274","-113.5824311172","2017-03-16 21:15:31","0","7","-12","28","1","-5","17","1","0","0","0","0","0","0","37","2012","2013","2017-03-16 21:16:27"
"7279","George H Luck School","300 Bulyea Road","","Edmonton","AB","T6R2L4","(780) 438-5011","Public","53.473904356733","-113.57216759392","2017-03-16 21:15:31","0","6","1","8","4","11","7","-5","0","0","0","0","0","0","32","2012","2013","2017-03-16 21:16:27"
"7280","Velma E. Baker School","2845 - 43A Avenue","","Edmonton","AB","T6T1J9","(780) 440-4088","Public","53.4809441","-113.3854166","2017-03-16 21:15:31","0","-5","10","6","-5","7","2","-18","0","0","0","0","0","0","-3","2012","2013","2017-03-16 21:16:27"
